[
  { "name": "ABASA", "latitude": "24.262102N", "longitude": "123.150836E" },
  { "name": "ABASI", "latitude": "44.000115N", "longitude": "144.083390E" },
  { "name": "ABECK", "latitude": "32.541348N", "longitude": "130.490639E" },
  { "name": "ABENO", "latitude": "34.353243N", "longitude": "135.415557E" },
  { "name": "ABIRA", "latitude": "42.475356N", "longitude": "141.575143E" },
  { "name": "ABKMA", "latitude": "37.054541N", "longitude": "140.251800E" },
  { "name": "ABUMI", "latitude": "32.444193N", "longitude": "131.353304E" },
  { "name": "ABURA", "latitude": "40.541999N", "longitude": "140.402803E" },
  { "name": "ACELA", "latitude": "36.071279N", "longitude": "140.191955E" },
  { "name": "ACORD", "latitude": "25.360989N", "longitude": "128.315050E" },
  { "name": "ACTIE", "latitude": "33.415773N", "longitude": "130.291440E" },
  { "name": "ACTOR", "latitude": "35.273400N", "longitude": "139.502528E" },
  { "name": "ACURE", "latitude": "35.453560N", "longitude": "140.273233E" },
  { "name": "ADDAN", "latitude": "26.411000N", "longitude": "128.182944E" },
  { "name": "ADDUM", "latitude": "34.532949N", "longitude": "140.142069E" },
  { "name": "ADGOR", "latitude": "40.252888N", "longitude": "149.390256E" },
  { "name": "ADGUN", "latitude": "35.034473N", "longitude": "136.011703E" },
  { "name": "ADKAK", "latitude": "33.541260N", "longitude": "142.094790E" },
  { "name": "ADKIP", "latitude": "34.065922N", "longitude": "134.434071E" },
  { "name": "ADLEB", "latitude": "35.295175N", "longitude": "133.163476E" },
  { "name": "ADMIK", "latitude": "24.510290N", "longitude": "141.300963E" },
  { "name": "ADNAP", "latitude": "37.115088N", "longitude": "145.395872E" },
  { "name": "ADNOK", "latitude": "32.023491N", "longitude": "130.224241E" },
  { "name": "ADPIN", "latitude": "43.020952N", "longitude": "141.293415E" },
  { "name": "ADRIA", "latitude": "35.305682N", "longitude": "140.353430E" },
  { "name": "ADTRA", "latitude": "37.002764N", "longitude": "140.342089E" },
  { "name": "AGARI", "latitude": "24.310338N", "longitude": "123.112538E" },
  { "name": "AGATA", "latitude": "34.102344N", "longitude": "129.274782E" },
  { "name": "AGEDI", "latitude": "44.100000N", "longitude": "155.054806E" },
  { "name": "AGIKA", "latitude": "30.001326N", "longitude": "131.262787E" },
  { "name": "AGIMO", "latitude": "33.263635N", "longitude": "138.184636E" },
  { "name": "AGNES", "latitude": "35.244926N", "longitude": "139.522184E" },
  { "name": "AGOVO", "latitude": "43.105651N", "longitude": "141.173135E" },
  { "name": "AGPUK", "latitude": "34.290831N", "longitude": "136.045130E" },
  { "name": "AGRIS", "latitude": "36.251470N", "longitude": "139.563313E" },
  { "name": "AGRIT", "latitude": "32.463176N", "longitude": "129.184848E" },
  { "name": "AGRUM", "latitude": "32.504319N", "longitude": "132.553762E" },
  { "name": "AIBAR", "latitude": "24.314165N", "longitude": "124.223964E" },
  { "name": "AIBIS", "latitude": "37.573593N", "longitude": "138.592516E" },
  { "name": "AIDAH", "latitude": "35.270293N", "longitude": "139.512305E" },
  { "name": "AIKOK", "latitude": "42.383796N", "longitude": "143.154805E" },
  { "name": "AILEY", "latitude": "33.140390N", "longitude": "132.360656E" },
  { "name": "AINOH", "latitude": "32.461713N", "longitude": "130.061683E" },
  { "name": "AINOS", "latitude": "33.405954N", "longitude": "130.230292E" },
  { "name": "AIRAH", "latitude": "31.140860N", "longitude": "131.061530E" },
  { "name": "AIRIS", "latitude": "41.424758N", "longitude": "140.572742E" },
  { "name": "AIZEN", "latitude": "34.012397N", "longitude": "134.440559E" },
  { "name": "AIZUH", "latitude": "37.454035N", "longitude": "139.432482E" },
  { "name": "AJISE", "latitude": "31.584709N", "longitude": "130.365923E" },
  { "name": "AKAGI", "latitude": "36.232833N", "longitude": "139.415628E" },
  { "name": "AKANA", "latitude": "34.574847N", "longitude": "132.490475E" },
  { "name": "AKANN", "latitude": "43.091157N", "longitude": "144.080237E" },
  { "name": "AKAOH", "latitude": "34.414103N", "longitude": "133.453495E" },
  { "name": "AKARI", "latitude": "39.431746N", "longitude": "141.081829E" },
  { "name": "AKASE", "latitude": "30.003430N", "longitude": "130.191732E" },
  { "name": "AKASI", "latitude": "34.352266N", "longitude": "134.451806E" },
  { "name": "AKAYU", "latitude": "38.040746N", "longitude": "139.454101E" },
  { "name": "AKESI", "latitude": "42.331640N", "longitude": "144.042357E" },
  { "name": "AKIAS", "latitude": "38.370190N", "longitude": "136.540377E" },
  { "name": "AKIBA", "latitude": "25.533223N", "longitude": "131.175686E" },
  { "name": "AKISU", "latitude": "47.330261N", "longitude": "161.200000E" },
  { "name": "AKITA", "latitude": "39.424164N", "longitude": "140.034431E" },
  { "name": "AKLEM", "latitude": "32.355282N", "longitude": "131.142766E" },
  { "name": "AKMEP", "latitude": "32.513392N", "longitude": "129.420980E" },
  { "name": "AKNAG", "latitude": "33.201697N", "longitude": "129.504482E" },
  { "name": "AKNED", "latitude": "38.432209N", "longitude": "139.543917E" },
  { "name": "AKRIT", "latitude": "36.040500N", "longitude": "142.062900E" },
  { "name": "AKSEL", "latitude": "34.403952N", "longitude": "139.512691E" },
  { "name": "AKSIL", "latitude": "33.461986N", "longitude": "129.584280E" },
  { "name": "AKSUN", "latitude": "45.450747N", "longitude": "140.541605E" },
  { "name": "AKTAP", "latitude": "30.484198N", "longitude": "133.440246E" },
  { "name": "AKTIL", "latitude": "37.210022N", "longitude": "140.110260E" },
  { "name": "AKUBI", "latitude": "32.570171N", "longitude": "138.392833E" },
  { "name": "AKUSI", "latitude": "25.535923N", "longitude": "130.424279E" },
  { "name": "AKUVU", "latitude": "34.513048N", "longitude": "136.524456E" },
  { "name": "AKVAS", "latitude": "29.351319N", "longitude": "127.275285E" },
  { "name": "ALBAT", "latitude": "33.215221N", "longitude": "135.262945E" },
  { "name": "ALBAX", "latitude": "23.340987N", "longitude": "125.193210E" },
  { "name": "ALDEM", "latitude": "31.021029N", "longitude": "133.340846E" },
  { "name": "ALDEN", "latitude": "34.514112N", "longitude": "140.150529E" },
  { "name": "ALDER", "latitude": "27.284374N", "longitude": "128.442949E" },
  { "name": "ALDET", "latitude": "40.544098N", "longitude": "140.544439E" },
  { "name": "ALFET", "latitude": "33.400147N", "longitude": "132.000721E" },
  { "name": "ALGES", "latitude": "36.474495N", "longitude": "144.201782E" },
  { "name": "ALICE", "latitude": "40.444198N", "longitude": "143.354830E" },
  { "name": "ALISA", "latitude": "34.304263N", "longitude": "134.080410E" },
  { "name": "ALLAN", "latitude": "34.140414N", "longitude": "134.572830E" },
  { "name": "ALLIE", "latitude": "35.263745N", "longitude": "139.510532E" },
  { "name": "ALPUS", "latitude": "35.265700N", "longitude": "138.174900E" },
  { "name": "ALTAI", "latitude": "30.002767N", "longitude": "130.214235E" },
  { "name": "ALUYO", "latitude": "32.460142N", "longitude": "135.071937E" },
  { "name": "ALVIS", "latitude": "34.164975N", "longitude": "135.013342E" },
  { "name": "AMAGA", "latitude": "33.171195N", "longitude": "131.022365E" },
  { "name": "AMAGO", "latitude": "36.195013N", "longitude": "136.174342E" },
  { "name": "AMAHA", "latitude": "35.124849N", "longitude": "139.540187E" },
  { "name": "AMAKO", "latitude": "35.205660N", "longitude": "133.102030E" },
  { "name": "AMAMI", "latitude": "28.263721N", "longitude": "129.350264E" },
  { "name": "AMAOH", "latitude": "33.280904N", "longitude": "130.095986E" },
  { "name": "AMARB", "latitude": "35.381516N", "longitude": "134.474198E" },
  { "name": "AMARU", "latitude": "38.495897N", "longitude": "139.540842E" },
  { "name": "AMBER", "latitude": "34.294220N", "longitude": "135.204265E" },
  { "name": "AMEZY", "latitude": "34.282729N", "longitude": "135.185073E" },
  { "name": "AMIDA", "latitude": "35.521755N", "longitude": "138.190410E" },
  { "name": "AMITY", "latitude": "35.581825N", "longitude": "140.152654E" },
  { "name": "AMMEK", "latitude": "25.355337N", "longitude": "127.053762E" },
  { "name": "AMMON", "latitude": "31.104276N", "longitude": "130.365222E" },
  { "name": "AMURO", "latitude": "34.413090N", "longitude": "133.202660E" },
  { "name": "ANANN", "latitude": "33.565343N", "longitude": "134.504269E" },
  { "name": "ANBIM", "latitude": "33.594956N", "longitude": "130.292249E" },
  { "name": "ANCOU", "latitude": "38.480321N", "longitude": "139.401241E" },
  { "name": "ANDEN", "latitude": "35.121790N", "longitude": "140.053472E" },
  { "name": "ANDOL", "latitude": "37.395800N", "longitude": "133.000000E" },
  { "name": "ANEMO", "latitude": "37.583350N", "longitude": "140.595035E" },
  { "name": "ANGAI", "latitude": "24.310920N", "longitude": "123.114546E" },
  { "name": "ANIMO", "latitude": "45.115593N", "longitude": "143.404530E" },
  { "name": "ANJYO", "latitude": "34.595882N", "longitude": "137.060884E" },
  { "name": "ANKIX", "latitude": "33.233463N", "longitude": "136.333032E" },
  { "name": "ANKOH", "latitude": "36.143902N", "longitude": "140.530928E" },
  { "name": "ANLAP", "latitude": "43.123687N", "longitude": "143.594413E" },
  { "name": "ANLIK", "latitude": "31.352837N", "longitude": "130.074719E" },
  { "name": "ANNIE", "latitude": "25.183772N", "longitude": "125.010016E" },
  { "name": "ANNON", "latitude": "38.374537N", "longitude": "140.044525E" },
  { "name": "ANOLA", "latitude": "39.152467N", "longitude": "140.561690E" },
  { "name": "ANOXA", "latitude": "28.591953N", "longitude": "129.223729E" },
  { "name": "ANPAL", "latitude": "24.185455N", "longitude": "124.115593E" },
  { "name": "ANPAN", "latitude": "33.250754N", "longitude": "133.504852E" },
  { "name": "ANPEP", "latitude": "34.421227N", "longitude": "131.410371E" },
  { "name": "ANREM", "latitude": "30.203256N", "longitude": "130.500461E" },
  { "name": "ANRIN", "latitude": "34.303173N", "longitude": "135.400966E" },
  { "name": "ANSAD", "latitude": "34.414792N", "longitude": "141.424441E" },
  { "name": "ANSUM", "latitude": "34.065873N", "longitude": "134.594328E" },
  { "name": "AOBAR", "latitude": "38.010214N", "longitude": "141.072323E" },
  { "name": "AOIKE", "latitude": "43.321051N", "longitude": "142.321331E" },
  { "name": "AOIKU", "latitude": "34.263457N", "longitude": "138.204652E" },
  { "name": "AOMORI", "latitude": "40.441965N", "longitude": "140.421920E" },
  { "name": "AONAE", "latitude": "42.002278N", "longitude": "139.444564E" },
  { "name": "AONII", "latitude": "34.480116N", "longitude": "133.573792E" },
  { "name": "APELA", "latitude": "34.432319N", "longitude": "129.135984E" },
  { "name": "APILU", "latitude": "35.175389N", "longitude": "136.392244E" },
  { "name": "APIOS", "latitude": "41.033934N", "longitude": "141.165738E" },
  { "name": "APITO", "latitude": "29.350000N", "longitude": "124.000000E" },
  { "name": "APOGU", "latitude": "33.282004N", "longitude": "131.562788E" },
  { "name": "APOII", "latitude": "41.415050N", "longitude": "143.041330E" },
  { "name": "APOLO", "latitude": "35.191932N", "longitude": "139.561478E" },
  { "name": "AQTOH", "latitude": "35.211673N", "longitude": "136.514019E" },
  { "name": "AQUOS", "latitude": "35.122974N", "longitude": "141.094249E" },
  { "name": "ARAOH", "latitude": "33.010175N", "longitude": "130.312268E" },
  { "name": "ARAPA", "latitude": "42.401039N", "longitude": "141.412585E" },
  { "name": "ARASI", "latitude": "35.105542N", "longitude": "135.475418E" },
  { "name": "ARATI", "latitude": "28.172658N", "longitude": "129.510133E" },
  { "name": "ARENA", "latitude": "35.302564N", "longitude": "139.365873E" },
  { "name": "AREPO", "latitude": "41.293710N", "longitude": "143.490038E" },
  { "name": "ARESU", "latitude": "35.064818N", "longitude": "136.461560E" },
  { "name": "ARGUY", "latitude": "24.465287N", "longitude": "125.355453E" },
  { "name": "ARIEL", "latitude": "34.393784N", "longitude": "136.442575E" },
  { "name": "ARIES", "latitude": "35.560738N", "longitude": "140.150588E" },
  { "name": "ARIGI", "latitude": "34.114354N", "longitude": "133.092047E" },
  { "name": "ARIKA", "latitude": "40.263670N", "longitude": "139.553967E" },
  { "name": "ARIMA", "latitude": "34.452268N", "longitude": "135.062141E" },
  { "name": "ARLON", "latitude": "35.152528N", "longitude": "139.585979E" },
  { "name": "AROSA", "latitude": "34.420172N", "longitude": "140.415729E" },
  { "name": "AROSI", "latitude": "30.340898N", "longitude": "131.032056E" },
  { "name": "ARSAR", "latitude": "34.053176N", "longitude": "131.143213E" },
  { "name": "ARTIC", "latitude": "34.425601N", "longitude": "138.481645E" },
  { "name": "ARUTU", "latitude": "33.404554N", "longitude": "129.420385E" },
  { "name": "ASAGI", "latitude": "35.023724N", "longitude": "134.450237E" },
  { "name": "ASAHIKAWA", "latitude": "43.400215N", "longitude": "142.272465E" },
  { "name": "ASAJI", "latitude": "36.065540N", "longitude": "133.084403E" },
  { "name": "ASAMA", "latitude": "34.300938N", "longitude": "136.534361E" },
  { "name": "ASAMI", "latitude": "34.075789N", "longitude": "134.484177E" },
  { "name": "ASAMU", "latitude": "40.562495N", "longitude": "140.460679E" },
  { "name": "ASANO", "latitude": "34.473441N", "longitude": "134.384768E" },
  { "name": "ASARI", "latitude": "33.533898N", "longitude": "131.125232E" },
  { "name": "ASATO", "latitude": "27.105418N", "longitude": "128.301469E" },
  { "name": "ASEDA", "latitude": "25.001562N", "longitude": "139.093173E" },
  { "name": "ASEKI", "latitude": "36.050675N", "longitude": "140.011420E" },
  { "name": "ASERO", "latitude": "30.411710N", "longitude": "130.503485E" },
  { "name": "ASESU", "latitude": "33.530389N", "longitude": "129.484491E" },
  { "name": "ASHRA", "latitude": "37.151648N", "longitude": "140.293875E" },
  { "name": "ASIBE", "latitude": "43.270398N", "longitude": "142.170093E" },
  { "name": "ASIMO", "latitude": "34.411820N", "longitude": "133.425843E" },
  { "name": "ASIRI", "latitude": "42.571465N", "longitude": "141.313049E" },
  { "name": "ASITA", "latitude": "33.132404N", "longitude": "139.541662E" },
  { "name": "ASONO", "latitude": "33.005811N", "longitude": "131.144942E" },
  { "name": "ASOVO", "latitude": "32.530338N", "longitude": "128.431517E" },
  { "name": "ASPEL", "latitude": "33.524253N", "longitude": "131.094164E" },
  { "name": "ASPEN", "latitude": "35.345100N", "longitude": "140.302810E" },
  { "name": "ASTAK", "latitude": "30.002219N", "longitude": "131.052865E" },
  { "name": "ASTER", "latitude": "39.135249N", "longitude": "142.315892E" },
  { "name": "ASTON", "latitude": "35.434459N", "longitude": "140.251863E" },
  { "name": "ASTRA", "latitude": "35.520710N", "longitude": "140.180020E" },
  { "name": "ASUKA", "latitude": "34.460272N", "longitude": "136.015473E" },
  { "name": "ATAMI", "latitude": "34.564858N", "longitude": "139.160367E" },
  { "name": "ATBUS", "latitude": "24.432311N", "longitude": "141.093037E" },
  { "name": "ATENA", "latitude": "34.502861N", "longitude": "136.420374E" },
  { "name": "ATENZ", "latitude": "34.203421N", "longitude": "133.035811E" },
  { "name": "ATERA", "latitude": "38.155381N", "longitude": "140.173923E" },
  { "name": "ATIGO", "latitude": "21.000000N", "longitude": "150.190000E" },
  { "name": "ATLER", "latitude": "33.432096N", "longitude": "130.125274E" },
  { "name": "ATLOT", "latitude": "34.282854N", "longitude": "135.185260E" },
  { "name": "ATMIK", "latitude": "35.251421N", "longitude": "133.413016E" },
  { "name": "ATNAP", "latitude": "38.013787N", "longitude": "139.031807E" },
  { "name": "ATNOX", "latitude": "30.203558N", "longitude": "129.514010E" },
  { "name": "ATOTI", "latitude": "30.001290N", "longitude": "125.115355E" },
  { "name": "ATPOD", "latitude": "35.405507N", "longitude": "133.383070E" },
  { "name": "ATSAG", "latitude": "33.395319N", "longitude": "129.421050E" },
  { "name": "ATSOP", "latitude": "30.314506N", "longitude": "131.073708E" },
  { "name": "ATUMI", "latitude": "38.381344N", "longitude": "139.242151E" },
  { "name": "AVBEK", "latitude": "33.554563N", "longitude": "131.010422E" },
  { "name": "AVBET", "latitude": "36.083235N", "longitude": "145.280000E" },
  { "name": "AVDAK", "latitude": "34.392150N", "longitude": "133.130286E" },
  { "name": "AVEEY", "latitude": "34.415589N", "longitude": "140.215797E" },
  { "name": "AVGOK", "latitude": "43.360813N", "longitude": "138.144747E" },
  { "name": "AVION", "latitude": "35.243724N", "longitude": "139.510550E" },
  { "name": "AVKAM", "latitude": "33.015637N", "longitude": "132.485778E" },
  { "name": "AVLAS", "latitude": "24.212031N", "longitude": "130.071537E" },
  { "name": "AVNON", "latitude": "36.072724N", "longitude": "136.095608E" },
  { "name": "AWAJI", "latitude": "34.161309N", "longitude": "134.424659E" },
  { "name": "AWARA", "latitude": "36.175935N", "longitude": "136.054719E" },
  { "name": "AWASI", "latitude": "38.241980N", "longitude": "139.235430E" },
  { "name": "AWAZU", "latitude": "36.194663N", "longitude": "136.173703E" },
  { "name": "AXELA", "latitude": "34.203440N", "longitude": "132.553480E" },
  { "name": "AXIZU", "latitude": "35.290933N", "longitude": "139.491776E" },
  { "name": "AYAGU", "latitude": "24.550120N", "longitude": "125.071306E" },
  { "name": "AYAKA", "latitude": "24.241489N", "longitude": "123.353138E" },
  { "name": "AYAME", "latitude": "34.360169N", "longitude": "134.271410E" },
  { "name": "AYANE", "latitude": "39.312980N", "longitude": "140.184505E" },
  { "name": "AYANO", "latitude": "34.054603N", "longitude": "136.233709E" },
  { "name": "AYAYA", "latitude": "34.451907N", "longitude": "134.321768E" },
  { "name": "AZAMA", "latitude": "26.093912N", "longitude": "127.480297E" },
  { "name": "AZEFU", "latitude": "27.403351N", "longitude": "128.383525E" },
  { "name": "AZUKI", "latitude": "32.240690N", "longitude": "127.345160E" },
  { "name": "AZUMI", "latitude": "36.285015N", "longitude": "137.543288E" },
  { "name": "AZURE", "latitude": "35.282148N", "longitude": "139.495168E" },
  { "name": "BAARU", "latitude": "35.150510N", "longitude": "132.275481E" },
  { "name": "BACCO", "latitude": "38.221991N", "longitude": "139.243154E" },
  { "name": "BACON", "latitude": "35.315502N", "longitude": "140.121507E" },
  { "name": "BAFFY", "latitude": "34.204240N", "longitude": "139.583113E" },
  { "name": "BAGLE", "latitude": "34.105141N", "longitude": "134.525096E" },
  { "name": "BAHAN", "latitude": "32.344289N", "longitude": "128.475739E" },
  { "name": "BAIEN", "latitude": "33.372039N", "longitude": "131.505977E" },
  { "name": "BAJYO", "latitude": "37.565532N", "longitude": "139.113243E" },
  { "name": "BALAN", "latitude": "35.361765N", "longitude": "139.592781E" },
  { "name": "BALAS", "latitude": "24.184637N", "longitude": "124.104506E" },
  { "name": "BALIE", "latitude": "33.545513N", "longitude": "132.120037E" },
  { "name": "BALSA", "latitude": "34.021141N", "longitude": "134.545276E" },
  { "name": "BAMBI", "latitude": "42.305879N", "longitude": "141.440867E" },
  { "name": "BAMBO", "latitude": "34.184775N", "longitude": "132.530179E" },
  { "name": "BANBA", "latitude": "42.391336N", "longitude": "143.150363E" },
  { "name": "BANDO", "latitude": "35.591971N", "longitude": "140.002522E" },
  { "name": "BANKE", "latitude": "43.025862N", "longitude": "141.153577E" },
  { "name": "BANKU", "latitude": "33.173993N", "longitude": "130.330249E" },
  { "name": "BANNA", "latitude": "24.294662N", "longitude": "124.041009E" },
  { "name": "BANSU", "latitude": "43.035877N", "longitude": "141.383273E" },
  { "name": "BANTA", "latitude": "28.210869N", "longitude": "130.064892E" },
  { "name": "BARBA", "latitude": "32.525307N", "longitude": "131.200115E" },
  { "name": "BARON", "latitude": "35.455102N", "longitude": "141.011197E" },
  { "name": "BASHO", "latitude": "27.035724N", "longitude": "128.503959E" },
  { "name": "BASIL", "latitude": "34.305564N", "longitude": "132.254092E" },
  { "name": "BASIN", "latitude": "38.071560N", "longitude": "138.563132E" },
  { "name": "BASSA", "latitude": "35.210880N", "longitude": "139.454222E" },
  { "name": "BATAK", "latitude": "33.340428N", "longitude": "133.542134E" },
  { "name": "BATTL", "latitude": "41.031856N", "longitude": "141.040004E" },
  { "name": "BAYGE", "latitude": "35.253536N", "longitude": "139.432742E" },
  { "name": "BEAMA", "latitude": "33.334667N", "longitude": "130.192882E" },
  { "name": "BEAMS", "latitude": "35.353300N", "longitude": "140.315310E" },
  { "name": "BEAST", "latitude": "35.362034N", "longitude": "140.083453E" },
  { "name": "BECKY", "latitude": "33.550901N", "longitude": "134.303063E" },
  { "name": "BEDAR", "latitude": "31.540100N", "longitude": "126.291000E" },
  { "name": "BEEBA", "latitude": "43.210667N", "longitude": "141.425979E" },
  { "name": "BEEBO", "latitude": "22.242800N", "longitude": "153.112600E" },
  { "name": "BEETL", "latitude": "34.154487N", "longitude": "129.494529E" },
  { "name": "BEGAD", "latitude": "33.231291N", "longitude": "143.144766E" },
  { "name": "BEGOP", "latitude": "33.261795N", "longitude": "132.205572E" },
  { "name": "BEGUL", "latitude": "35.152864N", "longitude": "137.475990E" },
  { "name": "BEIGE", "latitude": "34.320153N", "longitude": "135.214747E" },
  { "name": "BEKEN", "latitude": "38.002113N", "longitude": "142.034196E" },
  { "name": "BEKLA", "latitude": "35.495866N", "longitude": "139.100950E" },
  { "name": "BEKPO", "latitude": "36.543554N", "longitude": "142.285481E" },
  { "name": "BELKS", "latitude": "35.063854N", "longitude": "140.443325E" },
  { "name": "BELMI", "latitude": "43.053378N", "longitude": "141.153195E" },
  { "name": "BENES", "latitude": "34.500435N", "longitude": "134.091947E" },
  { "name": "BENKO", "latitude": "37.214826N", "longitude": "137.060341E" },
  { "name": "BENNY", "latitude": "39.014428N", "longitude": "139.413193E" },
  { "name": "BEPPO", "latitude": "43.034815N", "longitude": "144.170105E" },
  { "name": "BERBO", "latitude": "33.571025N", "longitude": "131.083617E" },
  { "name": "BERMA", "latitude": "34.532864N", "longitude": "136.352818E" },
  { "name": "BERRY", "latitude": "34.150196N", "longitude": "134.563159E" },
  { "name": "BERTH", "latitude": "34.091144N", "longitude": "134.190001E" },
  { "name": "BESAR", "latitude": "41.463508N", "longitude": "140.391636E" },
  { "name": "BESMU", "latitude": "34.484536N", "longitude": "131.575166E" },
  { "name": "BESNA", "latitude": "34.371800N", "longitude": "129.075100E" },
  { "name": "BESRU", "latitude": "42.525774N", "longitude": "143.592854E" },
  { "name": "BETEL", "latitude": "35.593159N", "longitude": "140.534340E" },
  { "name": "BETTY", "latitude": "24.122014N", "longitude": "125.180384E" },
  { "name": "BIBLO", "latitude": "35.350875N", "longitude": "140.110814E" },
  { "name": "BIDIK", "latitude": "36.004612N", "longitude": "137.290958E" },
  { "name": "BIGIT", "latitude": "32.022094N", "longitude": "127.071417E" },
  { "name": "BIHOK", "latitude": "34.533699N", "longitude": "133.005035E" },
  { "name": "BIJIN", "latitude": "39.305259N", "longitude": "140.242555E" },
  { "name": "BIKAN", "latitude": "34.511960N", "longitude": "134.032318E" },
  { "name": "BILLY", "latitude": "33.364009N", "longitude": "137.371138E" },
  { "name": "BINGO", "latitude": "34.242572N", "longitude": "133.104068E" },
  { "name": "BINID", "latitude": "27.540756N", "longitude": "128.535296E" },
  { "name": "BINKS", "latitude": "35.111631N", "longitude": "140.435667E" },
  { "name": "BIRDY", "latitude": "35.523692N", "longitude": "140.193427E" },
  { "name": "BIRKN", "latitude": "33.214261N", "longitude": "133.471790E" },
  { "name": "BISAM", "latitude": "39.550781N", "longitude": "138.151632E" },
  { "name": "BISEI", "latitude": "42.515466N", "longitude": "142.554363E" },
  { "name": "BISIG", "latitude": "21.000000N", "longitude": "125.160000E" },
  { "name": "BISIS", "latitude": "26.472123N", "longitude": "126.325732E" },
  { "name": "BISIV", "latitude": "44.593132N", "longitude": "144.165834E" },
  { "name": "BITEK", "latitude": "35.474041N", "longitude": "143.360277E" },
  { "name": "BIVET", "latitude": "35.282629N", "longitude": "138.403684E" },
  { "name": "BIWWA", "latitude": "35.065759N", "longitude": "136.152161E" },
  { "name": "BIXAK", "latitude": "27.525018N", "longitude": "133.081522E" },
  { "name": "BIZAN", "latitude": "34.061312N", "longitude": "134.300250E" },
  { "name": "BIZEN", "latitude": "34.423565N", "longitude": "134.125432E" },
  { "name": "BLISS", "latitude": "26.024928N", "longitude": "127.382304E" },
  { "name": "BLOND", "latitude": "34.300315N", "longitude": "135.185052E" },
  { "name": "BLUES", "latitude": "34.515902N", "longitude": "131.542309E" },
  { "name": "BNCHO", "latitude": "38.053644N", "longitude": "141.003727E" },
  { "name": "BOCHU", "latitude": "32.560039N", "longitude": "131.022519E" },
  { "name": "BOGON", "latitude": "34.323300N", "longitude": "137.354381E" },
  { "name": "BOHNI", "latitude": "41.360623N", "longitude": "140.425819E" },
  { "name": "BOKJO", "latitude": "34.323239N", "longitude": "138.230578E" },
  { "name": "BOKSO", "latitude": "42.481874N", "longitude": "142.275465E" },
  { "name": "BOLED", "latitude": "30.574693N", "longitude": "137.444820E" },
  { "name": "BOLEO", "latitude": "33.051074N", "longitude": "130.164486E" },
  { "name": "BOLIG", "latitude": "35.035825N", "longitude": "134.103179E" },
  { "name": "BOLUT", "latitude": "28.462200N", "longitude": "124.421200E" },
  { "name": "BOMAP", "latitude": "30.001316N", "longitude": "129.492807E" },
  { "name": "BONDO", "latitude": "35.361928N", "longitude": "140.044248E" },
  { "name": "BONGO", "latitude": "37.244500N", "longitude": "140.572600E" },
  { "name": "BONJI", "latitude": "39.591343N", "longitude": "140.175253E" },
  { "name": "BONTI", "latitude": "35.314246N", "longitude": "138.304086E" },
  { "name": "BONUS", "latitude": "35.361997N", "longitude": "140.070957E" },
  { "name": "BOOST", "latitude": "26.065315N", "longitude": "127.381159E" },
  { "name": "BOOTH", "latitude": "35.402360N", "longitude": "140.512047E" },
  { "name": "BORDO", "latitude": "26.010000N", "longitude": "124.000000E" },
  { "name": "BORLO", "latitude": "35.163377N", "longitude": "141.445561E" },
  { "name": "BOROS", "latitude": "28.325861N", "longitude": "129.535310E" },
  { "name": "BOSPA", "latitude": "35.475735N", "longitude": "141.051125E" },
  { "name": "BOTAN", "latitude": "33.275634N", "longitude": "133.110588E" },
  { "name": "BOUZU", "latitude": "43.352272N", "longitude": "142.300563E" },
  { "name": "BOXER", "latitude": "35.521300N", "longitude": "140.195160E" },
  { "name": "BRAID", "latitude": "33.230563N", "longitude": "131.091110E" },
  { "name": "BRASS", "latitude": "34.323060N", "longitude": "135.223096E" },
  { "name": "BRAVE", "latitude": "33.265453N", "longitude": "133.533301E" },
  { "name": "BRENT", "latitude": "25.010600N", "longitude": "123.105800E" },
  { "name": "BRIKO", "latitude": "39.331417N", "longitude": "139.580119E" },
  { "name": "BRITE", "latitude": "34.525347N", "longitude": "134.111023E" },
  { "name": "BROOK", "latitude": "36.021416N", "longitude": "140.103912E" },
  { "name": "BRUCE", "latitude": "36.120044N", "longitude": "139.565593E" },
  { "name": "BRUIN", "latitude": "33.060959N", "longitude": "130.281840E" },
  { "name": "BRUTE", "latitude": "34.203696N", "longitude": "134.200710E" },
  { "name": "BUBDO", "latitude": "31.255507N", "longitude": "136.391383E" },
  { "name": "BUBLE", "latitude": "38.033368N", "longitude": "140.595623E" },
  { "name": "BUDOH", "latitude": "38.235850N", "longitude": "139.183108E" },
  { "name": "BUENA", "latitude": "34.260947N", "longitude": "133.023228E" },
  { "name": "BUGGY", "latitude": "33.525915N", "longitude": "133.544431E" },
  { "name": "BUICK", "latitude": "26.040577N", "longitude": "128.443658E" },
  { "name": "BUKRO", "latitude": "24.195299N", "longitude": "123.500612E" },
  { "name": "BULAN", "latitude": "27.053000N", "longitude": "124.000000E" },
  { "name": "BUMER", "latitude": "34.452272N", "longitude": "134.594731E" },
  { "name": "BUNNY", "latitude": "34.414505N", "longitude": "136.572444E" },
  { "name": "BURRI", "latitude": "36.314372N", "longitude": "136.164211E" },
  { "name": "BURTN", "latitude": "34.174766N", "longitude": "135.003666E" },
  { "name": "BUSYU", "latitude": "35.473993N", "longitude": "138.475544E" },
  { "name": "BUTOS", "latitude": "39.260009N", "longitude": "141.251780E" },
  { "name": "BYOBU", "latitude": "41.000954N", "longitude": "140.441425E" },
  { "name": "BYODO", "latitude": "34.554363N", "longitude": "135.472305E" },
  { "name": "CACAO", "latitude": "35.221281N", "longitude": "139.553014E" },
  { "name": "CADDY", "latitude": "31.000018N", "longitude": "139.591345E" },
  { "name": "CAMAS", "latitude": "32.432113N", "longitude": "128.154492E" },
  { "name": "CAMEL", "latitude": "35.171821N", "longitude": "139.585777E" },
  { "name": "CANAI", "latitude": "26.440121N", "longitude": "134.022733E" },
  { "name": "CANDY", "latitude": "33.522981N", "longitude": "134.554178E" },
  { "name": "CANON", "latitude": "34.134835N", "longitude": "139.371856E" },
  { "name": "CAPLY", "latitude": "41.175340N", "longitude": "141.173089E" },
  { "name": "CARCO", "latitude": "32.430173N", "longitude": "129.024766E" },
  { "name": "CARDS", "latitude": "34.250750N", "longitude": "136.240306E" },
  { "name": "CARNY", "latitude": "35.091926N", "longitude": "132.131342E" },
  { "name": "CAROL", "latitude": "34.355492N", "longitude": "133.160137E" },
  { "name": "CARPS", "latitude": "34.242467N", "longitude": "132.213395E" },
  { "name": "CARRY", "latitude": "34.103719N", "longitude": "131.094248E" },
  { "name": "CASIO", "latitude": "35.502135N", "longitude": "140.355606E" },
  { "name": "CASTR", "latitude": "27.124105N", "longitude": "128.232240E" },
  { "name": "CAVES", "latitude": "40.155087N", "longitude": "141.545467E" },
  { "name": "CAYAH", "latitude": "38.403006N", "longitude": "138.212030E" },
  { "name": "CECIL", "latitude": "35.265898N", "longitude": "139.520795E" },
  { "name": "CEDAR", "latitude": "30.184557N", "longitude": "130.474674E" },
  { "name": "CELCA", "latitude": "37.291867N", "longitude": "136.060402E" },
  { "name": "CELES", "latitude": "31.401050N", "longitude": "130.552056E" },
  { "name": "CEREZ", "latitude": "34.354215N", "longitude": "135.312325E" },
  { "name": "CEYLN", "latitude": "34.201222N", "longitude": "134.581484E" },
  { "name": "CHAGA", "latitude": "31.541356N", "longitude": "131.504059E" },
  { "name": "CHAMP", "latitude": "27.550709N", "longitude": "128.320505E" },
  { "name": "CHARA", "latitude": "32.483722N", "longitude": "130.013760E" },
  { "name": "CHAUS", "latitude": "35.263325N", "longitude": "138.022931E" },
  { "name": "CHEEZ", "latitude": "33.255497N", "longitude": "133.550705E" },
  { "name": "CHEIN", "latitude": "35.292948N", "longitude": "139.502143E" },
  { "name": "CHERY", "latitude": "26.555636N", "longitude": "128.391808E" },
  { "name": "CHESS", "latitude": "35.203281N", "longitude": "136.290554E" },
  { "name": "CHIBA", "latitude": "35.352220N", "longitude": "140.035996E" },
  { "name": "CHILY", "latitude": "36.120299N", "longitude": "135.132114E" },
  { "name": "CHIMI", "latitude": "24.392759N", "longitude": "125.112820E" },
  { "name": "CHINU", "latitude": "33.305503N", "longitude": "130.262827E" },
  { "name": "CHIPS", "latitude": "36.124770N", "longitude": "140.143689E" },
  { "name": "CHITOSE", "latitude": "42.415965N", "longitude": "141.411020E" },
  { "name": "CHIYO", "latitude": "41.452614N", "longitude": "141.061422E" },
  { "name": "CHIZU", "latitude": "35.014616N", "longitude": "134.302537E" },
  { "name": "CHOJU", "latitude": "27.570494N", "longitude": "128.513719E" },
  { "name": "CHOKA", "latitude": "39.170951N", "longitude": "140.140106E" },
  { "name": "CHOPP", "latitude": "33.511098N", "longitude": "133.251549E" },
  { "name": "CHUBU", "latitude": "34.512882N", "longitude": "136.481141E" },
  { "name": "CHUMS", "latitude": "35.423702N", "longitude": "140.480595E" },
  { "name": "CIDER", "latitude": "35.275554N", "longitude": "139.512793E" },
  { "name": "CISCO", "latitude": "35.250978N", "longitude": "139.532517E" },
  { "name": "CIVIC", "latitude": "35.084058N", "longitude": "140.255207E" },
  { "name": "CLAKY", "latitude": "42.594220N", "longitude": "141.250034E" },
  { "name": "CLALA", "latitude": "39.110746N", "longitude": "137.521648E" },
  { "name": "CLARK", "latitude": "36.070203N", "longitude": "139.480047E" },
  { "name": "CLIFF", "latitude": "26.331254N", "longitude": "127.445322E" },
  { "name": "CLIPA", "latitude": "33.593492N", "longitude": "131.453584E" },
  { "name": "CLOAK", "latitude": "35.154798N", "longitude": "140.020818E" },
  { "name": "CLONE", "latitude": "34.435781N", "longitude": "140.085600E" },
  { "name": "CLOVE", "latitude": "34.492658N", "longitude": "133.511342E" },
  { "name": "COACH", "latitude": "35.373601N", "longitude": "140.123148E" },
  { "name": "COLOR", "latitude": "36.011632N", "longitude": "140.121980E" },
  { "name": "COMBI", "latitude": "33.545082N", "longitude": "139.293805E" },
  { "name": "COPEN", "latitude": "35.330370N", "longitude": "140.493917E" },
  { "name": "COPSE", "latitude": "35.465879N", "longitude": "140.120538E" },
  { "name": "CORCO", "latitude": "25.522649N", "longitude": "130.591508E" },
  { "name": "CORGI", "latitude": "35.382977N", "longitude": "140.513890E" },
  { "name": "COSMO", "latitude": "35.343641N", "longitude": "140.303859E" },
  { "name": "COSTA", "latitude": "34.403738N", "longitude": "136.545939E" },
  { "name": "CRANE", "latitude": "42.491684N", "longitude": "144.084659E" },
  { "name": "CREAM", "latitude": "35.174335N", "longitude": "140.061242E" },
  { "name": "CREST", "latitude": "35.284302N", "longitude": "139.505432E" },
  { "name": "CROWN", "latitude": "35.394373N", "longitude": "140.285300E" },
  { "name": "CUBIC", "latitude": "37.551775N", "longitude": "141.350297E" },
  { "name": "CUPID", "latitude": "35.293025N", "longitude": "141.055726E" },
  { "name": "CUPIE", "latitude": "35.264484N", "longitude": "133.072766E" },
  { "name": "CURIO", "latitude": "35.594923N", "longitude": "140.265506E" },
  { "name": "CURVA", "latitude": "35.091903N", "longitude": "139.312439E" },
  { "name": "CURVY", "latitude": "35.245876N", "longitude": "139.520810E" },
  { "name": "CUTEE", "latitude": "46.245400N", "longitude": "162.183600E" },
  { "name": "CYGNY", "latitude": "35.554517N", "longitude": "140.171776E" },
  { "name": "DAGDA", "latitude": "33.485814N", "longitude": "142.205170E" },
  { "name": "DAGRI", "latitude": "31.260225N", "longitude": "131.063816E" },
  { "name": "DAIAN", "latitude": "36.091272N", "longitude": "136.153750E" },
  { "name": "DAIBU", "latitude": "35.283406N", "longitude": "139.312210E" },
  { "name": "DAIEI", "latitude": "35.303829N", "longitude": "133.421040E" },
  { "name": "DAIGO", "latitude": "36.443972N", "longitude": "140.205946E" },
  { "name": "DAIJO", "latitude": "36.165367N", "longitude": "136.123183E" },
  { "name": "DAIKU", "latitude": "34.064928N", "longitude": "134.423410E" },
  { "name": "DAIOH", "latitude": "34.154665N", "longitude": "137.233691E" },
  { "name": "DAISY", "latitude": "34.300226N", "longitude": "135.031060E" },
  { "name": "DAITO", "latitude": "35.215356N", "longitude": "140.303903E" },
  { "name": "DAIWA", "latitude": "38.195766N", "longitude": "140.523263E" },
  { "name": "DAIYA", "latitude": "35.374988N", "longitude": "139.583786E" },
  { "name": "DAIZE", "latitude": "33.155600N", "longitude": "130.273365E" },
  { "name": "DALBI", "latitude": "42.044921N", "longitude": "140.305243E" },
  { "name": "DALMA", "latitude": "35.004978N", "longitude": "138.512212E" },
  { "name": "DAMBO", "latitude": "35.341651N", "longitude": "140.044337E" },
  { "name": "DANDE", "latitude": "34.130941N", "longitude": "135.243394E" },
  { "name": "DANDY", "latitude": "37.102552N", "longitude": "139.304188E" },
  { "name": "DANGO", "latitude": "34.325163N", "longitude": "133.365441E" },
  { "name": "DANJU", "latitude": "35.373390N", "longitude": "132.344085E" },
  { "name": "DANKE", "latitude": "24.355846N", "longitude": "125.151183E" },
  { "name": "DANON", "latitude": "35.341812N", "longitude": "140.111686E" },
  { "name": "DANTE", "latitude": "36.071681N", "longitude": "140.282201E" },
  { "name": "DAPPE", "latitude": "36.344092N", "longitude": "140.563120E" },
  { "name": "DARIO", "latitude": "35.392166N", "longitude": "140.124045E" },
  { "name": "DARKS", "latitude": "35.341483N", "longitude": "139.590294E" },
  { "name": "DASCO", "latitude": "39.510920N", "longitude": "141.082638E" },
  { "name": "DASSY", "latitude": "45.170392N", "longitude": "141.475793E" },
  { "name": "DATEK", "latitude": "32.225604N", "longitude": "130.194913E" },
  { "name": "DATIS", "latitude": "33.585196N", "longitude": "134.561314E" },
  { "name": "DATUM", "latitude": "35.425964N", "longitude": "140.082426E" },
  { "name": "DATZU", "latitude": "43.314519N", "longitude": "144.460373E" },
  { "name": "DAZAI", "latitude": "33.220085N", "longitude": "130.420807E" },
  { "name": "DEANE", "latitude": "35.341734N", "longitude": "140.075547E" },
  { "name": "DECKS", "latitude": "26.071317N", "longitude": "126.475397E" },
  { "name": "DEGNA", "latitude": "34.565156N", "longitude": "136.405888E" },
  { "name": "DEIJI", "latitude": "26.025181N", "longitude": "127.391561E" },
  { "name": "DELCA", "latitude": "35.350692N", "longitude": "140.114089E" },
  { "name": "DELFI", "latitude": "34.454896N", "longitude": "136.433897E" },
  { "name": "DELTA", "latitude": "27.521402N", "longitude": "130.305202E" },
  { "name": "DEMET", "latitude": "31.590713N", "longitude": "131.025268E" },
  { "name": "DEMIO", "latitude": "34.324847N", "longitude": "132.551250E" },
  { "name": "DEMIZ", "latitude": "34.011185N", "longitude": "131.470649E" },
  { "name": "DEMPA", "latitude": "31.432956N", "longitude": "135.195237E" },
  { "name": "DENNY", "latitude": "35.482880N", "longitude": "140.055637E" },
  { "name": "DENSA", "latitude": "24.362647N", "longitude": "124.175668E" },
  { "name": "DERBY", "latitude": "38.001274N", "longitude": "140.274837E" },
  { "name": "DIANA", "latitude": "24.595312N", "longitude": "125.055309E" },
  { "name": "DIFUK", "latitude": "43.224279N", "longitude": "145.105279E" },
  { "name": "DIKAN", "latitude": "33.011522N", "longitude": "131.043868E" },
  { "name": "DIMAC", "latitude": "35.321905N", "longitude": "136.443780E" },
  { "name": "DIMAN", "latitude": "36.123163N", "longitude": "133.245723E" },
  { "name": "DINAH", "latitude": "34.022599N", "longitude": "135.243397E" },
  { "name": "DINGO", "latitude": "27.253574N", "longitude": "128.483204E" },
  { "name": "DIODE", "latitude": "33.542158N", "longitude": "134.292462E" },
  { "name": "DISCO", "latitude": "35.354312N", "longitude": "140.141535E" },
  { "name": "DISEN", "latitude": "35.463566N", "longitude": "133.312537E" },
  { "name": "DISSH", "latitude": "36.165400N", "longitude": "133.453966E" },
  { "name": "DOALA", "latitude": "35.094464N", "longitude": "136.590087E" },
  { "name": "DOCHU", "latitude": "34.071680N", "longitude": "134.220089E" },
  { "name": "DODGE", "latitude": "25.443798N", "longitude": "126.522701E" },
  { "name": "DOGGY", "latitude": "34.232761N", "longitude": "134.570959E" },
  { "name": "DOKIN", "latitude": "33.271890N", "longitude": "133.235756E" },
  { "name": "DOLBA", "latitude": "34.420298N", "longitude": "141.260708E" },
  { "name": "DOLGO", "latitude": "34.095998N", "longitude": "138.163280E" },
  { "name": "DOLLY", "latitude": "34.443815N", "longitude": "136.500222E" },
  { "name": "DOMBI", "latitude": "33.105053N", "longitude": "137.253170E" },
  { "name": "DOMEL", "latitude": "35.341402N", "longitude": "139.563514E" },
  { "name": "DONAN", "latitude": "27.575555N", "longitude": "129.244049E" },
  { "name": "DONAR", "latitude": "33.210514N", "longitude": "132.290470E" },
  { "name": "DONDO", "latitude": "35.555320N", "longitude": "133.153762E" },
  { "name": "DONKO", "latitude": "33.474075N", "longitude": "131.563933E" },
  { "name": "DONKY", "latitude": "32.392325N", "longitude": "132.110709E" },
  { "name": "DORAI", "latitude": "33.492938N", "longitude": "130.232839E" },
  { "name": "DORIS", "latitude": "26.043051N", "longitude": "126.415331E" },
  { "name": "DOUJI", "latitude": "33.024356N", "longitude": "131.003513E" },
  { "name": "DOVAG", "latitude": "28.350196N", "longitude": "133.485096E" },
  { "name": "DOVIX", "latitude": "37.020688N", "longitude": "144.152748E" },
  { "name": "DOYLE", "latitude": "35.341715N", "longitude": "140.071051E" },
  { "name": "DOZAN", "latitude": "35.180451N", "longitude": "136.253009E" },
  { "name": "DOZEN", "latitude": "36.020578N", "longitude": "133.143044E" },
  { "name": "DRAKY", "latitude": "34.530173N", "longitude": "139.320546E" },
  { "name": "DREAD", "latitude": "36.035919N", "longitude": "139.585694E" },
  { "name": "DREAM", "latitude": "35.385325N", "longitude": "141.002388E" },
  { "name": "DROMP", "latitude": "35.361602N", "longitude": "139.350839E" },
  { "name": "DUFFY", "latitude": "26.082647N", "longitude": "126.304837E" },
  { "name": "DUGON", "latitude": "34.343646N", "longitude": "136.472602E" },
  { "name": "DULOK", "latitude": "35.271419N", "longitude": "133.085877E" },
  { "name": "DYUKE", "latitude": "35.375958N", "longitude": "140.103834E" },
  { "name": "EAZAR", "latitude": "33.050725N", "longitude": "130.212272E" },
  { "name": "EBINE", "latitude": "33.394544N", "longitude": "139.393207E" },
  { "name": "EBISU", "latitude": "34.022014N", "longitude": "130.352768E" },
  { "name": "EBONY", "latitude": "34.265153N", "longitude": "134.572694E" },
  { "name": "EBOSI", "latitude": "38.002866N", "longitude": "140.373575E" },
  { "name": "EBUSI", "latitude": "36.442157N", "longitude": "137.125524E" },
  { "name": "EDARR", "latitude": "35.332574N", "longitude": "139.322963E" },
  { "name": "EDDIE", "latitude": "35.144742N", "longitude": "140.214088E" },
  { "name": "EDOJO", "latitude": "35.421398N", "longitude": "139.512992E" },
  { "name": "EGAMO", "latitude": "38.041379N", "longitude": "139.060955E" },
  { "name": "EGAWA", "latitude": "35.174891N", "longitude": "139.540842E" },
  { "name": "EGERU", "latitude": "32.380079N", "longitude": "133.364106E" },
  { "name": "EGESO", "latitude": "33.423457N", "longitude": "132.044619E" },
  { "name": "EGOGO", "latitude": "34.294446N", "longitude": "136.141318E" },
  { "name": "EGURO", "latitude": "41.421079N", "longitude": "141.025705E" },
  { "name": "EIHEI", "latitude": "36.100509N", "longitude": "136.223246E" },
  { "name": "EISAR", "latitude": "26.285789N", "longitude": "127.301905E" },
  { "name": "EKABU", "latitude": "33.051252N", "longitude": "130.123123E" },
  { "name": "EKIRA", "latitude": "35.043410N", "longitude": "140.340922E" },
  { "name": "EKIRI", "latitude": "33.325470N", "longitude": "129.355763E" },
  { "name": "EKOMU", "latitude": "42.395479N", "longitude": "141.412816E" },
  { "name": "EKORU", "latitude": "31.290567N", "longitude": "131.285436E" },
  { "name": "EKUNU", "latitude": "33.481617N", "longitude": "133.382308E" },
  { "name": "EKUSA", "latitude": "37.133877N", "longitude": "142.354972E" },
  { "name": "EKVIK", "latitude": "39.445165N", "longitude": "136.361874E" },
  { "name": "ELBIT", "latitude": "40.441965N", "longitude": "140.580676E" },
  { "name": "ELDAK", "latitude": "38.013387N", "longitude": "139.454035E" },
  { "name": "ELGAR", "latitude": "35.312920N", "longitude": "140.452739E" },
  { "name": "ELGIM", "latitude": "33.350850N", "longitude": "139.551981E" },
  { "name": "ELIEE", "latitude": "26.011567N", "longitude": "127.382557E" },
  { "name": "ELKOT", "latitude": "35.441268N", "longitude": "137.291250E" },
  { "name": "ELMIR", "latitude": "34.214573N", "longitude": "136.072388E" },
  { "name": "ELNEB", "latitude": "34.180578N", "longitude": "131.413444E" },
  { "name": "ELNIS", "latitude": "35.072552N", "longitude": "138.225249E" },
  { "name": "ELPAG", "latitude": "31.325581N", "longitude": "130.381999E" },
  { "name": "ELSAH", "latitude": "35.031922N", "longitude": "136.454018E" },
  { "name": "EMIKO", "latitude": "27.284634N", "longitude": "128.450921E" },
  { "name": "EMITT", "latitude": "35.102074N", "longitude": "136.590012E" },
  { "name": "EMREK", "latitude": "33.504014N", "longitude": "129.440082E" },
  { "name": "EMRON", "latitude": "38.062165N", "longitude": "150.000000E" },
  { "name": "ENBEN", "latitude": "32.234209N", "longitude": "131.070242E" },
  { "name": "ENBIM", "latitude": "39.551934N", "longitude": "141.100282E" },
  { "name": "ENBRY", "latitude": "40.310465N", "longitude": "141.422171E" },
  { "name": "ENDEG", "latitude": "24.201594N", "longitude": "124.115567E" },
  { "name": "ENDIB", "latitude": "33.305741N", "longitude": "139.111447E" },
  { "name": "ENDOH", "latitude": "37.110866N", "longitude": "136.582425E" },
  { "name": "ENEOS", "latitude": "36.223073N", "longitude": "139.343550E" },
  { "name": "ENGEZ", "latitude": "33.431333N", "longitude": "135.182224E" },
  { "name": "ENMUH", "latitude": "35.135239N", "longitude": "132.451246E" },
  { "name": "ENPAD", "latitude": "30.343721N", "longitude": "130.041414E" },
  { "name": "ENPAR", "latitude": "35.520516N", "longitude": "139.495432E" },
  { "name": "ENPOM", "latitude": "34.451766N", "longitude": "138.173408E" },
  { "name": "ENRAB", "latitude": "34.444819N", "longitude": "131.315304E" },
  { "name": "ENRIT", "latitude": "45.210508N", "longitude": "141.253854E" },
  { "name": "ENRUN", "latitude": "35.273611N", "longitude": "132.181714E" },
  { "name": "ENSAT", "latitude": "34.033169N", "longitude": "142.433021E" },
  { "name": "ENSYU", "latitude": "34.323586N", "longitude": "138.020250E" },
  { "name": "ENTAK", "latitude": "36.593689N", "longitude": "140.474165E" },
  { "name": "ENTIX", "latitude": "33.475748N", "longitude": "130.181894E" },
  { "name": "ENTOK", "latitude": "26.191434N", "longitude": "124.595383E" },
  { "name": "ENVAS", "latitude": "38.304448N", "longitude": "139.373162E" },
  { "name": "ENVOP", "latitude": "36.380904N", "longitude": "143.493608E" },
  { "name": "ENYAH", "latitude": "35.213567N", "longitude": "132.464383E" },
  { "name": "EPKOP", "latitude": "41.581352N", "longitude": "140.320961E" },
  { "name": "EPSON", "latitude": "35.303617N", "longitude": "140.130594E" },
  { "name": "ERABU", "latitude": "27.255838N", "longitude": "128.415627E" },
  { "name": "ERIMO", "latitude": "41.313468N", "longitude": "143.480507E" },
  { "name": "ESANN", "latitude": "42.032167N", "longitude": "141.052755E" },
  { "name": "ESASI", "latitude": "41.544828N", "longitude": "140.112445E" },
  { "name": "ESBIS", "latitude": "31.151251N", "longitude": "127.225276E" },
  { "name": "ESKAP", "latitude": "32.332298N", "longitude": "131.005932E" },
  { "name": "ESKAS", "latitude": "37.063514N", "longitude": "140.354937E" },
  { "name": "ESKEN", "latitude": "36.050109N", "longitude": "140.412276E" },
  { "name": "ESKOB", "latitude": "26.100951N", "longitude": "127.572764E" },
  { "name": "ESKOK", "latitude": "34.435621N", "longitude": "142.200477E" },
  { "name": "ESLAS", "latitude": "33.403467N", "longitude": "130.231995E" },
  { "name": "ESLIL", "latitude": "32.191272N", "longitude": "130.530829E" },
  { "name": "ESNAL", "latitude": "32.511257N", "longitude": "130.361849E" },
  { "name": "ESNIP", "latitude": "37.065300N", "longitude": "142.501400E" },
  { "name": "ESPAN", "latitude": "34.111417N", "longitude": "136.350881E" },
  { "name": "ESPEK", "latitude": "24.582069N", "longitude": "127.044662E" },
  { "name": "ESTRA", "latitude": "29.040209N", "longitude": "130.280615E" },
  { "name": "ETIGO", "latitude": "37.333923N", "longitude": "139.125202E" },
  { "name": "EVERT", "latitude": "33.392507N", "longitude": "135.075905E" },
  { "name": "EVIAN", "latitude": "33.594219N", "longitude": "134.365725E" },
  { "name": "EXPOH", "latitude": "35.061866N", "longitude": "137.011160E" },
  { "name": "EZAKI", "latitude": "25.494953N", "longitude": "131.155959E" },
  { "name": "FAROL", "latitude": "34.432965N", "longitude": "136.484365E" },
  { "name": "FENIX", "latitude": "32.083042N", "longitude": "131.352933E" },
  { "name": "FERAR", "latitude": "33.141325N", "longitude": "145.594692E" },
  { "name": "FEVER", "latitude": "26.154472N", "longitude": "127.374659E" },
  { "name": "FIATO", "latitude": "34.003743N", "longitude": "133.035457E" },
  { "name": "FINCH", "latitude": "38.063300N", "longitude": "140.362201E" },
  { "name": "FINGA", "latitude": "37.073346N", "longitude": "138.331906E" },
  { "name": "FIONA", "latitude": "35.284568N", "longitude": "140.412595E" },
  { "name": "FITTO", "latitude": "33.590863N", "longitude": "140.012074E" },
  { "name": "FIZZY", "latitude": "34.171381N", "longitude": "135.020906E" },
  { "name": "FKASI", "latitude": "36.161734N", "longitude": "137.545442E" },
  { "name": "FLUTE", "latitude": "34.321890N", "longitude": "136.574944E" },
  { "name": "FOCUS", "latitude": "26.403200N", "longitude": "127.424339E" },
  { "name": "FOGEL", "latitude": "36.062627N", "longitude": "131.574333E" },
  { "name": "FOIRU", "latitude": "37.573881N", "longitude": "138.591541E" },
  { "name": "FOSTA", "latitude": "35.083291N", "longitude": "134.453283E" },
  { "name": "FRAIZ", "latitude": "33.574885N", "longitude": "129.370710E" },
  { "name": "FREDY", "latitude": "30.540167N", "longitude": "131.154346E" },
  { "name": "FREED", "latitude": "25.284011N", "longitude": "126.323274E" },
  { "name": "FTAMI", "latitude": "34.340391N", "longitude": "136.423103E" },
  { "name": "FUBKI", "latitude": "32.470785N", "longitude": "130.031275E" },
  { "name": "FUBOU", "latitude": "37.554020N", "longitude": "140.355164E" },
  { "name": "FUCHA", "latitude": "27.321546N", "longitude": "128.490978E" },
  { "name": "FUCHU", "latitude": "34.155138N", "longitude": "133.534509E" },
  { "name": "FUDOU", "latitude": "34.061576N", "longitude": "134.295098E" },
  { "name": "FUGEN", "latitude": "32.391948N", "longitude": "130.292548E" },
  { "name": "FUJIK", "latitude": "34.414077N", "longitude": "138.253917E" },
  { "name": "FUJIM", "latitude": "42.242260N", "longitude": "141.481563E" },
  { "name": "FUKJU", "latitude": "43.414046N", "longitude": "144.041326E" },
  { "name": "FUKUE", "latitude": "32.400698N", "longitude": "128.493625E" },
  { "name": "FUKUOKA", "latitude": "33.403435N", "longitude": "130.232266E" },
  { "name": "FUKUSHIMA", "latitude": "37.132750N", "longitude": "140.261351E" },
  { "name": "FUMAI", "latitude": "35.281129N", "longitude": "133.002258E" },
  { "name": "FUMOT", "latitude": "32.562684N", "longitude": "130.533758E" },
  { "name": "FUNKA", "latitude": "42.210094N", "longitude": "140.365861E" },
  { "name": "FURAH", "latitude": "36.575846N", "longitude": "140.140448E" },
  { "name": "FUSHA", "latitude": "33.173773N", "longitude": "132.081457E" },
  { "name": "FUSSE", "latitude": "36.124538N", "longitude": "133.245744E" },
  { "name": "FUTAO", "latitude": "34.070055N", "longitude": "130.455840E" },
  { "name": "FUUKA", "latitude": "24.445077N", "longitude": "125.121364E" },
  { "name": "FUUTA", "latitude": "43.090758N", "longitude": "141.141009E" },
  { "name": "GAHRA", "latitude": "24.424313N", "longitude": "125.055035E" },
  { "name": "GAINA", "latitude": "35.362351N", "longitude": "133.312660E" },
  { "name": "GAKIA", "latitude": "27.485813N", "longitude": "127.251492E" },
  { "name": "GAKKI", "latitude": "34.445233N", "longitude": "137.405037E" },
  { "name": "GAKKO", "latitude": "39.433894N", "longitude": "140.241180E" },
  { "name": "GAKTO", "latitude": "36.212181N", "longitude": "137.544202E" },
  { "name": "GALAS", "latitude": "33.431634N", "longitude": "135.182657E" },
  { "name": "GAMAR", "latitude": "36.111938N", "longitude": "140.045898E" },
  { "name": "GAMBA", "latitude": "34.425377N", "longitude": "135.400731E" },
  { "name": "GAMJA", "latitude": "33.250467N", "longitude": "129.491362E" },
  { "name": "GAMMA", "latitude": "35.585627N", "longitude": "140.523461E" },
  { "name": "GANAS", "latitude": "25.260606N", "longitude": "125.523895E" },
  { "name": "GANDO", "latitude": "36.433445N", "longitude": "137.141996E" },
  { "name": "GANEK", "latitude": "27.014464N", "longitude": "125.534674E" },
  { "name": "GANJU", "latitude": "25.521995N", "longitude": "126.432397E" },
  { "name": "GANSU", "latitude": "39.251244N", "longitude": "141.122260E" },
  { "name": "GASAN", "latitude": "38.071198N", "longitude": "140.092976E" },
  { "name": "GATAL", "latitude": "33.044737N", "longitude": "130.074035E" },
  { "name": "GATAN", "latitude": "25.583389N", "longitude": "131.181324E" },
  { "name": "GATES", "latitude": "34.082138N", "longitude": "134.490257E" },
  { "name": "GATSU", "latitude": "40.135033N", "longitude": "140.045551E" },
  { "name": "GAUDI", "latitude": "35.300242N", "longitude": "141.041810E" },
  { "name": "GELMA", "latitude": "26.203785N", "longitude": "127.243122E" },
  { "name": "GEMBU", "latitude": "34.290128N", "longitude": "139.362350E" },
  { "name": "GEMIN", "latitude": "35.573861N", "longitude": "140.245074E" },
  { "name": "GEMNI", "latitude": "25.410897N", "longitude": "126.551880E" },
  { "name": "GENGE", "latitude": "37.323190N", "longitude": "137.460089E" },
  { "name": "GENJI", "latitude": "36.553757N", "longitude": "140.240459E" },
  { "name": "GENOA", "latitude": "40.381240N", "longitude": "140.380288E" },
  { "name": "GEPPA", "latitude": "39.533432N", "longitude": "139.262458E" },
  { "name": "GIBAR", "latitude": "39.290547N", "longitude": "140.175727E" },
  { "name": "GIINA", "latitude": "35.312065N", "longitude": "140.325915E" },
  { "name": "GILUS", "latitude": "33.524550N", "longitude": "131.105785E" },
  { "name": "GINGA", "latitude": "43.373873N", "longitude": "143.571093E" },
  { "name": "GINJI", "latitude": "35.053964N", "longitude": "135.165102E" },
  { "name": "GINJO", "latitude": "37.090202N", "longitude": "136.421049E" },
  { "name": "GINRE", "latitude": "36.384137N", "longitude": "136.562124E" },
  { "name": "GINZA", "latitude": "38.384062N", "longitude": "140.242018E" },
  { "name": "GLARE", "latitude": "36.004783N", "longitude": "140.193734E" },
  { "name": "GLAXY", "latitude": "36.305970N", "longitude": "140.385751E" },
  { "name": "GLORY", "latitude": "34.273604N", "longitude": "134.440057E" },
  { "name": "GLOVR", "latitude": "33.135288N", "longitude": "130.022135E" },
  { "name": "GNITS", "latitude": "39.172254N", "longitude": "138.123853E" },
  { "name": "GOBOH", "latitude": "33.543635N", "longitude": "135.062224E" },
  { "name": "GODIN", "latitude": "36.242534N", "longitude": "140.165589E" },
  { "name": "GOHEI", "latitude": "36.115157N", "longitude": "137.212844E" },
  { "name": "GOKAH", "latitude": "32.355138N", "longitude": "130.535433E" },
  { "name": "GOKOR", "latitude": "35.562814N", "longitude": "140.145078E" },
  { "name": "GOKYO", "latitude": "32.361716N", "longitude": "130.041281E" },
  { "name": "GOLDO", "latitude": "38.035685N", "longitude": "138.243549E" },
  { "name": "GOLIA", "latitude": "34.163209N", "longitude": "135.000928E" },
  { "name": "GOMAF", "latitude": "44.240130N", "longitude": "143.210716E" },
  { "name": "GOMAR", "latitude": "32.274470N", "longitude": "127.512878E" },
  { "name": "GOMES", "latitude": "27.161620N", "longitude": "128.415561E" },
  { "name": "GONBE", "latitude": "33.375226N", "longitude": "132.114878E" },
  { "name": "GONOU", "latitude": "40.251288N", "longitude": "140.130740E" },
  { "name": "GORIN", "latitude": "24.320523N", "longitude": "129.534468E" },
  { "name": "GOROH", "latitude": "32.583747N", "longitude": "130.175450E" },
  { "name": "GORYO", "latitude": "43.381472N", "longitude": "142.204568E" },
  { "name": "GORYU", "latitude": "37.115455N", "longitude": "137.461035E" },
  { "name": "GOSEN", "latitude": "37.284403N", "longitude": "139.174730E" },
  { "name": "GOSIK", "latitude": "36.300366N", "longitude": "136.355224E" },
  { "name": "GOSKI", "latitude": "32.244878N", "longitude": "130.163664E" },
  { "name": "GOTOH", "latitude": "24.331916N", "longitude": "123.101925E" },
  { "name": "GOTON", "latitude": "25.541322N", "longitude": "131.165233E" },
  { "name": "GOURA", "latitude": "33.413864N", "longitude": "129.165247E" },
  { "name": "GOWAS", "latitude": "32.042102N", "longitude": "130.481381E" },
  { "name": "GOZEN", "latitude": "36.250492N", "longitude": "136.115657E" },
  { "name": "GRAYL", "latitude": "35.150483N", "longitude": "141.293795E" },
  { "name": "GREEN", "latitude": "32.535523N", "longitude": "133.335940E" },
  { "name": "GRIPP", "latitude": "35.223341N", "longitude": "137.061928E" },
  { "name": "GUFFI", "latitude": "42.491745N", "longitude": "141.504348E" },
  { "name": "GUGBI", "latitude": "37.463161N", "longitude": "141.060030E" },
  { "name": "GUJYO", "latitude": "35.215052N", "longitude": "136.343848E" },
  { "name": "GULBO", "latitude": "35.263286N", "longitude": "141.450955E" },
  { "name": "GULEG", "latitude": "32.523363N", "longitude": "138.100221E" },
  { "name": "GULID", "latitude": "35.392132N", "longitude": "140.283025E" },
  { "name": "GULIS", "latitude": "34.470516N", "longitude": "141.121467E" },
  { "name": "GUMBO", "latitude": "22.455400N", "longitude": "123.150600E" },
  { "name": "GUMYO", "latitude": "35.324898N", "longitude": "140.220170E" },
  { "name": "GUNZE", "latitude": "35.162489N", "longitude": "135.134845E" },
  { "name": "GUPER", "latitude": "33.443904N", "longitude": "138.542088E" },
  { "name": "GUPTI", "latitude": "29.012445N", "longitude": "128.091867E" },
  { "name": "GURAG", "latitude": "21.000000N", "longitude": "127.250000E" },
  { "name": "GURAR", "latitude": "30.591073N", "longitude": "134.133841E" },
  { "name": "GURIP", "latitude": "36.331642N", "longitude": "140.373649E" },
  { "name": "GURUX", "latitude": "26.085224N", "longitude": "127.122656E" },
  { "name": "GUSLU", "latitude": "30.544383N", "longitude": "133.393698E" },
  { "name": "GUSPA", "latitude": "33.105837N", "longitude": "129.552194E" },
  { "name": "GUSRO", "latitude": "35.394478N", "longitude": "139.081311E" },
  { "name": "GUSUK", "latitude": "24.275418N", "longitude": "124.252708E" },
  { "name": "GUTLO", "latitude": "34.471503N", "longitude": "141.124476E" },
  { "name": "GYODA", "latitude": "36.095018N", "longitude": "139.183970E" },
  { "name": "GYOGN", "latitude": "33.314892N", "longitude": "139.484458E" },
  { "name": "HABAR", "latitude": "34.190974N", "longitude": "133.351962E" },
  { "name": "HABIK", "latitude": "34.324679N", "longitude": "135.391417E" },
  { "name": "HABOH", "latitude": "32.352151N", "longitude": "130.215294E" },
  { "name": "HABSI", "latitude": "34.230703N", "longitude": "139.234472E" },
  { "name": "HABUH", "latitude": "28.305810N", "longitude": "129.453411E" },
  { "name": "HACHA", "latitude": "28.092383N", "longitude": "129.005146E" },
  { "name": "HACHI", "latitude": "35.470421N", "longitude": "136.405698E" },
  {
    "name": "HACHIJOJIMA",
    "latitude": "33.065166N",
    "longitude": "139.471854E"
  },
  { "name": "HAGAR", "latitude": "36.345200N", "longitude": "140.022313E" },
  { "name": "HAGEN", "latitude": "43.300680N", "longitude": "144.393424E" },
  { "name": "HAGNO", "latitude": "37.591740N", "longitude": "141.244306E" },
  { "name": "HAIJI", "latitude": "38.532083N", "longitude": "137.505188E" },
  { "name": "HAILY", "latitude": "36.155231N", "longitude": "139.174717E" },
  { "name": "HAKBA", "latitude": "37.153583N", "longitude": "137.530471E" },
  { "name": "HAKKA", "latitude": "36.503477N", "longitude": "138.284502E" },
  { "name": "HAKNE", "latitude": "35.113654N", "longitude": "139.074074E" },
  { "name": "HAKODATE", "latitude": "41.462651N", "longitude": "140.495598E" },
  { "name": "HAKUI", "latitude": "36.455226N", "longitude": "136.385322E" },
  { "name": "HALHI", "latitude": "35.374060N", "longitude": "139.244030E" },
  { "name": "HALKA", "latitude": "34.130555N", "longitude": "134.590246E" },
  { "name": "HALKI", "latitude": "37.192315N", "longitude": "137.022482E" },
  { "name": "HALMA", "latitude": "25.533496N", "longitude": "130.424005E" },
  { "name": "HALON", "latitude": "33.145557N", "longitude": "134.595000E" },
  { "name": "HAMAR", "latitude": "34.243474N", "longitude": "135.030405E" },
  { "name": "HAMAU", "latitude": "34.255192N", "longitude": "139.095115E" },
  { "name": "HAMNA", "latitude": "34.333651N", "longitude": "137.524626E" },
  { "name": "HANAB", "latitude": "38.253549N", "longitude": "138.015655E" },
  { "name": "HANAMAKI", "latitude": "39.260009N", "longitude": "141.080060E" },
  { "name": "HANAR", "latitude": "34.214989N", "longitude": "140.492329E" },
  { "name": "HANKA", "latitude": "39.010596N", "longitude": "140.334077E" },
  { "name": "HANTO", "latitude": "34.304064N", "longitude": "137.020430E" },
  { "name": "HANZA", "latitude": "27.311305N", "longitude": "128.320466E" },
  { "name": "HAPPO", "latitude": "37.060490N", "longitude": "137.532073E" },
  { "name": "HAPPY", "latitude": "42.425809N", "longitude": "143.074516E" },
  { "name": "HARIO", "latitude": "33.001911N", "longitude": "129.501208E" },
  { "name": "HARKY", "latitude": "34.292226N", "longitude": "135.174771E" },
  { "name": "HARPS", "latitude": "35.275771N", "longitude": "140.401522E" },
  { "name": "HARRY", "latitude": "33.240858N", "longitude": "130.343292E" },
  { "name": "HASMA", "latitude": "34.003952N", "longitude": "129.391477E" },
  { "name": "HASSA", "latitude": "26.233412N", "longitude": "127.551596E" },
  { "name": "HASSY", "latitude": "34.071872N", "longitude": "131.434423E" },
  { "name": "HATAR", "latitude": "36.201840N", "longitude": "139.362429E" },
  { "name": "HATBA", "latitude": "35.262340N", "longitude": "139.431590E" },
  { "name": "HATCH", "latitude": "34.204289N", "longitude": "135.024804E" },
  { "name": "HATIA", "latitude": "34.031189N", "longitude": "132.215919E" },
  { "name": "HATIS", "latitude": "34.013850N", "longitude": "134.432809E" },
  { "name": "HATRI", "latitude": "37.225960N", "longitude": "140.091887E" },
  { "name": "HATSU", "latitude": "34.583556N", "longitude": "139.295309E" },
  { "name": "HAWKS", "latitude": "33.194799N", "longitude": "130.372997E" },
  { "name": "HAYAH", "latitude": "33.433763N", "longitude": "135.190526E" },
  { "name": "HAZEL", "latitude": "34.140642N", "longitude": "129.232190E" },
  { "name": "HEIAN", "latitude": "35.204695N", "longitude": "135.454363E" },
  { "name": "HEIGU", "latitude": "33.364676N", "longitude": "132.042795E" },
  { "name": "HEIKE", "latitude": "37.240100N", "longitude": "139.443900E" },
  { "name": "HEIWA", "latitude": "34.014784N", "longitude": "130.483027E" },
  { "name": "HELEN", "latitude": "34.344890N", "longitude": "135.065175E" },
  { "name": "HENRO", "latitude": "33.540887N", "longitude": "132.492509E" },
  { "name": "HERAI", "latitude": "36.202199N", "longitude": "136.194401E" },
  { "name": "HERON", "latitude": "37.315590N", "longitude": "140.355559E" },
  { "name": "HESEN", "latitude": "36.113097N", "longitude": "136.340022E" },
  { "name": "HIBAR", "latitude": "41.063830N", "longitude": "140.450160E" },
  { "name": "HIBIS", "latitude": "34.145482N", "longitude": "134.073002E" },
  { "name": "HIDAH", "latitude": "36.303579N", "longitude": "137.021963E" },
  { "name": "HIDEK", "latitude": "28.215097N", "longitude": "132.450230E" },
  { "name": "HIGMA", "latitude": "45.215464N", "longitude": "141.392913E" },
  { "name": "HIGOH", "latitude": "32.114537N", "longitude": "130.534645E" },
  { "name": "HIKNE", "latitude": "35.141545N", "longitude": "136.103704E" },
  { "name": "HIMEH", "latitude": "33.441489N", "longitude": "131.365124E" },
  { "name": "HIMKA", "latitude": "31.571328N", "longitude": "131.295079E" },
  { "name": "HIMMY", "latitude": "36.491595N", "longitude": "136.540689E" },
  { "name": "HIMRO", "latitude": "36.355298N", "longitude": "136.340229E" },
  { "name": "HINAG", "latitude": "32.234227N", "longitude": "130.305371E" },
  { "name": "HINAI", "latitude": "40.173007N", "longitude": "140.381794E" },
  { "name": "HINJA", "latitude": "28.442273N", "longitude": "130.320230E" },
  { "name": "HINOK", "latitude": "32.461590N", "longitude": "130.412517E" },
  { "name": "HIOTI", "latitude": "34.382727N", "longitude": "136.361150E" },
  { "name": "HIRAR", "latitude": "25.035177N", "longitude": "125.452943E" },
  { "name": "HIROO", "latitude": "41.580242N", "longitude": "143.353107E" },
  { "name": "HIROS", "latitude": "31.553020N", "longitude": "132.123051E" },
  { "name": "HISAK", "latitude": "32.453143N", "longitude": "128.542457E" },
  { "name": "HISUI", "latitude": "37.353446N", "longitude": "137.555309E" },
  { "name": "HIZEN", "latitude": "33.055251N", "longitude": "130.050367E" },
  { "name": "HIZET", "latitude": "33.521772N", "longitude": "131.133293E" },
  { "name": "HIZME", "latitude": "39.314242N", "longitude": "141.093533E" },
  { "name": "HOBBS", "latitude": "35.265393N", "longitude": "139.454129E" },
  { "name": "HOKKE", "latitude": "40.000962N", "longitude": "137.263042E" },
  { "name": "HOKKI", "latitude": "42.314568N", "longitude": "141.522440E" },
  { "name": "HOKTA", "latitude": "36.233027N", "longitude": "140.543831E" },
  { "name": "HOKTO", "latitude": "41.280257N", "longitude": "143.112529E" },
  { "name": "HOKUE", "latitude": "37.064469N", "longitude": "138.250215E" },
  { "name": "HOKUU", "latitude": "38.520787N", "longitude": "140.173052E" },
  { "name": "HOLNI", "latitude": "34.431900N", "longitude": "139.182184E" },
  { "name": "HONDA", "latitude": "35.341727N", "longitude": "140.111864E" },
  { "name": "HONDO", "latitude": "32.251923N", "longitude": "130.110480E" },
  { "name": "HONJO", "latitude": "39.271991N", "longitude": "140.045255E" },
  { "name": "HONMA", "latitude": "33.493396N", "longitude": "134.570396E" },
  { "name": "HONOK", "latitude": "33.200634N", "longitude": "130.164779E" },
  { "name": "HOPPS", "latitude": "34.022908N", "longitude": "130.410241E" },
  { "name": "HORAI", "latitude": "27.381633N", "longitude": "128.514018E" },
  { "name": "HOSEN", "latitude": "33.162573N", "longitude": "131.101730E" },
  { "name": "HOSTA", "latitude": "34.231820N", "longitude": "135.075847E" },
  { "name": "HOTAL", "latitude": "36.591591N", "longitude": "136.023887E" },
  { "name": "HOUBA", "latitude": "35.472073N", "longitude": "137.134916E" },
  { "name": "HOVER", "latitude": "33.203615N", "longitude": "131.440937E" },
  { "name": "HYDRA", "latitude": "35.091937N", "longitude": "140.525252E" },
  { "name": "HYOGO", "latitude": "34.513062N", "longitude": "134.594403E" },
  { "name": "HYOKO", "latitude": "37.514900N", "longitude": "139.182567E" },
  { "name": "HYUGA", "latitude": "32.080340N", "longitude": "132.022558E" },
  { "name": "IBELU", "latitude": "37.590565N", "longitude": "140.163849E" },
  { "name": "IBENO", "latitude": "34.544931N", "longitude": "137.403280E" },
  { "name": "IBIPI", "latitude": "33.570155N", "longitude": "131.023276E" },
  { "name": "IBOSA", "latitude": "43.050657N", "longitude": "143.192677E" },
  { "name": "IBUKI", "latitude": "35.351141N", "longitude": "136.273350E" },
  { "name": "IBURA", "latitude": "35.421214N", "longitude": "140.375953E" },
  { "name": "IBURI", "latitude": "41.555924N", "longitude": "141.281071E" },
  { "name": "IDEMI", "latitude": "41.531731N", "longitude": "141.163357E" },
  { "name": "IDIKO", "latitude": "30.193874N", "longitude": "130.500426E" },
  { "name": "IDLAN", "latitude": "36.010202N", "longitude": "144.054301E" },
  { "name": "IDOLI", "latitude": "33.592616N", "longitude": "130.354669E" },
  { "name": "IGAMO", "latitude": "42.511260N", "longitude": "143.361452E" },
  { "name": "IGBAM", "latitude": "34.260948N", "longitude": "132.475530E" },
  { "name": "IGENO", "latitude": "33.364339N", "longitude": "133.421386E" },
  { "name": "IGLAN", "latitude": "34.035865N", "longitude": "142.184813E" },
  { "name": "IGLAT", "latitude": "33.040963N", "longitude": "131.215291E" },
  { "name": "IGMIS", "latitude": "33.260287N", "longitude": "137.544912E" },
  { "name": "IGMON", "latitude": "27.371966N", "longitude": "124.431387E" },
  { "name": "IGNAM", "latitude": "42.571378N", "longitude": "144.130925E" },
  { "name": "IGNOT", "latitude": "35.204336N", "longitude": "139.281553E" },
  { "name": "IGOBI", "latitude": "37.540656N", "longitude": "137.170108E" },
  { "name": "IGOTO", "latitude": "35.153419N", "longitude": "136.205243E" },
  { "name": "IGRAS", "latitude": "37.184535N", "longitude": "132.441038E" },
  { "name": "IGREK", "latitude": "29.211440N", "longitude": "129.432418E" },
  { "name": "IGROD", "latitude": "41.390000N", "longitude": "136.470000E" },
  { "name": "IGURU", "latitude": "23.570000N", "longitude": "124.000000E" },
  { "name": "IGUSA", "latitude": "30.203704N", "longitude": "130.030256E" },
  { "name": "IHEYA", "latitude": "27.004022N", "longitude": "127.540982E" },
  { "name": "IKAHO", "latitude": "36.551437N", "longitude": "139.043093E" },
  { "name": "IKANU", "latitude": "43.042945N", "longitude": "141.262274E" },
  { "name": "IKASU", "latitude": "31.490508N", "longitude": "130.151543E" },
  { "name": "IKEJI", "latitude": "28.154127N", "longitude": "129.441466E" },
  { "name": "IKI", "latitude": "33.445104N", "longitude": "129.463667E" },
  { "name": "IKIME", "latitude": "31.593825N", "longitude": "131.210783E" },
  { "name": "IKOKO", "latitude": "43.094789N", "longitude": "144.065690E" },
  { "name": "IKOMA", "latitude": "34.361668N", "longitude": "135.391481E" },
  { "name": "IKORU", "latitude": "42.011308N", "longitude": "139.404742E" },
  { "name": "IKUJI", "latitude": "37.021750N", "longitude": "137.293253E" },
  { "name": "IKUNO", "latitude": "35.120480N", "longitude": "134.512480E" },
  { "name": "IKURA", "latitude": "45.270728N", "longitude": "142.020143E" },
  { "name": "IKYUN", "latitude": "28.151426N", "longitude": "129.431497E" },
  { "name": "IMIZU", "latitude": "36.442239N", "longitude": "136.592555E" },
  { "name": "IMOLA", "latitude": "35.042595N", "longitude": "139.295095E" },
  { "name": "IMONY", "latitude": "38.111155N", "longitude": "140.100504E" },
  { "name": "IMORE", "latitude": "28.352882N", "longitude": "129.480284E" },
  { "name": "IMPAL", "latitude": "33.055776N", "longitude": "135.120678E" },
  { "name": "INABA", "latitude": "35.495607N", "longitude": "133.463323E" },
  { "name": "INAHO", "latitude": "38.094711N", "longitude": "139.121705E" },
  { "name": "INARI", "latitude": "34.411572N", "longitude": "133.560570E" },
  { "name": "INASA", "latitude": "32.505582N", "longitude": "130.005817E" },
  { "name": "INASY", "latitude": "35.583629N", "longitude": "140.151342E" },
  { "name": "INAWA", "latitude": "37.321749N", "longitude": "140.002978E" },
  { "name": "INAZO", "latitude": "39.201309N", "longitude": "141.064665E" },
  { "name": "INGYA", "latitude": "24.413841N", "longitude": "125.164753E" },
  { "name": "INOBE", "latitude": "27.555166N", "longitude": "128.451189E" },
  { "name": "INOOK", "latitude": "34.295248N", "longitude": "133.371865E" },
  { "name": "INTEL", "latitude": "35.455301N", "longitude": "139.434023E" },
  { "name": "INUBO", "latitude": "35.433529N", "longitude": "140.475794E" },
  { "name": "INVAM", "latitude": "30.135485N", "longitude": "128.595200E" },
  { "name": "INVOK", "latitude": "34.471917N", "longitude": "129.192281E" },
  { "name": "IORIE", "latitude": "33.063335N", "longitude": "129.422736E" },
  { "name": "IPDEL", "latitude": "30.203581N", "longitude": "130.350985E" },
  { "name": "IPLES", "latitude": "35.242766N", "longitude": "137.334577E" },
  { "name": "IPNAX", "latitude": "36.223809N", "longitude": "139.550983E" },
  { "name": "IPNEX", "latitude": "30.334991N", "longitude": "131.035458E" },
  { "name": "IPROS", "latitude": "35.150700N", "longitude": "143.193800E" },
  { "name": "IPUDO", "latitude": "32.152264N", "longitude": "130.385819E" },
  { "name": "IRAGO", "latitude": "34.411206N", "longitude": "137.045190E" },
  { "name": "IRMUT", "latitude": "32.490321N", "longitude": "133.441794E" },
  { "name": "IRNOK", "latitude": "34.383289N", "longitude": "141.155824E" },
  { "name": "IROHA", "latitude": "31.283759N", "longitude": "130.511757E" },
  { "name": "IRPIN", "latitude": "32.521847N", "longitude": "130.220427E" },
  { "name": "IRUKA", "latitude": "32.273648N", "longitude": "130.271500E" },
  { "name": "ISAAC", "latitude": "34.265095N", "longitude": "135.024085E" },
  { "name": "ISAKY", "latitude": "33.122227N", "longitude": "129.391081E" },
  { "name": "ISARI", "latitude": "41.490918N", "longitude": "140.370932E" },
  { "name": "ISASA", "latitude": "35.410752N", "longitude": "134.314731E" },
  { "name": "ISDAM", "latitude": "36.491266N", "longitude": "138.211114E" },
  { "name": "ISEBI", "latitude": "33.420269N", "longitude": "137.065003E" },
  { "name": "ISEKI", "latitude": "24.382491N", "longitude": "123.032223E" },
  { "name": "ISENN", "latitude": "27.374911N", "longitude": "128.571658E" },
  {
    "name": "ISHIGAKIJIMA",
    "latitude": "24.234564N",
    "longitude": "124.141663E"
  },
  { "name": "ISIDO", "latitude": "39.295645N", "longitude": "141.095705E" },
  { "name": "ISIJI", "latitude": "26.070328N", "longitude": "127.385833E" },
  { "name": "ISIMA", "latitude": "33.554395N", "longitude": "134.573208E" },
  { "name": "ISIYA", "latitude": "43.011250N", "longitude": "141.384943E" },
  { "name": "ISKID", "latitude": "31.354739N", "longitude": "130.321388E" },
  { "name": "ISKUP", "latitude": "33.284730N", "longitude": "129.504663E" },
  { "name": "ISLOG", "latitude": "41.431566N", "longitude": "143.423397E" },
  { "name": "ISMAD", "latitude": "30.545703N", "longitude": "130.523166E" },
  { "name": "ISMOK", "latitude": "33.533814N", "longitude": "129.443593E" },
  { "name": "ISOLA", "latitude": "34.202638N", "longitude": "133.081957E" },
  { "name": "ISONO", "latitude": "33.424911N", "longitude": "130.214067E" },
  { "name": "ISPIT", "latitude": "32.073600N", "longitude": "127.211002E" },
  { "name": "ISPUM", "latitude": "34.254831N", "longitude": "135.150642E" },
  { "name": "ISTAK", "latitude": "33.590477N", "longitude": "129.360940E" },
  { "name": "ISUZU", "latitude": "34.474797N", "longitude": "136.424253E" },
  { "name": "ITABU", "latitude": "27.431593N", "longitude": "128.521062E" },
  { "name": "ITAKO", "latitude": "36.070430N", "longitude": "141.013508E" },
  { "name": "ITODA", "latitude": "33.424223N", "longitude": "130.433305E" },
  { "name": "ITTOH", "latitude": "34.442957N", "longitude": "139.004010E" },
  { "name": "ITTOK", "latitude": "34.194981N", "longitude": "129.163898E" },
  { "name": "ITUKI", "latitude": "34.041585N", "longitude": "132.481130E" },
  { "name": "ITUWA", "latitude": "32.362101N", "longitude": "130.025389E" },
  { "name": "IWAKI", "latitude": "37.085591N", "longitude": "140.583247E" },
  { "name": "IWASE", "latitude": "40.242173N", "longitude": "140.271951E" },
  { "name": "IWATA", "latitude": "34.463409N", "longitude": "137.581553E" },
  { "name": "IWATO", "latitude": "32.373579N", "longitude": "131.032373E" },
  { "name": "IWAYA", "latitude": "33.560053N", "longitude": "131.243287E" },
  { "name": "IYOKA", "latitude": "34.221842N", "longitude": "135.254610E" },
  { "name": "IZARI", "latitude": "33.560120N", "longitude": "134.531578E" },
  { "name": "IZUMI", "latitude": "34.262854N", "longitude": "135.253128E" },
  { "name": "IZUMO", "latitude": "35.250206N", "longitude": "132.533254E" },
  { "name": "JACKY", "latitude": "31.331678N", "longitude": "131.514721E" },
  { "name": "JADDO", "latitude": "32.082755N", "longitude": "130.385663E" },
  { "name": "JAKAL", "latitude": "33.034330N", "longitude": "134.140339E" },
  { "name": "JAMEN", "latitude": "39.280314N", "longitude": "141.215436E" },
  { "name": "JANDY", "latitude": "34.172871N", "longitude": "135.023115E" },
  { "name": "JANGO", "latitude": "33.483373N", "longitude": "134.143479E" },
  { "name": "JANUS", "latitude": "31.451665N", "longitude": "131.045006E" },
  { "name": "JARED", "latitude": "35.102476N", "longitude": "140.521540E" },
  { "name": "JEDAI", "latitude": "30.462872N", "longitude": "129.120416E" },
  { "name": "JENNY", "latitude": "34.181001N", "longitude": "135.010976E" },
  { "name": "JEWEL", "latitude": "33.385214N", "longitude": "131.502489E" },
  { "name": "JIEFA", "latitude": "24.545024N", "longitude": "125.500167E" },
  { "name": "JIIMA", "latitude": "43.021164N", "longitude": "141.205912E" },
  { "name": "JILKY", "latitude": "34.300838N", "longitude": "135.030478E" },
  { "name": "JINBE", "latitude": "33.512090N", "longitude": "133.102749E" },
  { "name": "JINGU", "latitude": "31.540981N", "longitude": "131.025520E" },
  { "name": "JITAN", "latitude": "34.491419N", "longitude": "140.534927E" },
  { "name": "JOBAN", "latitude": "35.541643N", "longitude": "140.003498E" },
  { "name": "JODAI", "latitude": "43.051954N", "longitude": "141.322671E" },
  { "name": "JOINT", "latitude": "26.203289N", "longitude": "127.373300E" },
  { "name": "JOKER", "latitude": "31.065863N", "longitude": "131.273319E" },
  { "name": "JOLLY", "latitude": "34.090056N", "longitude": "135.022561E" },
  { "name": "JOMMY", "latitude": "42.485801N", "longitude": "142.071957E" },
  { "name": "JOSIN", "latitude": "33.390881N", "longitude": "134.545712E" },
  { "name": "JOTTO", "latitude": "24.143833N", "longitude": "124.072968E" },
  { "name": "JOUDO", "latitude": "36.135170N", "longitude": "133.290126E" },
  { "name": "JOUGO", "latitude": "28.192852N", "longitude": "129.443771E" },
  { "name": "JOZAN", "latitude": "42.594902N", "longitude": "141.074909E" },
  { "name": "JUGEM", "latitude": "37.560100N", "longitude": "141.094600E" },
  { "name": "JULIA", "latitude": "34.300814N", "longitude": "134.581634E" },
  { "name": "JUNOH", "latitude": "34.580331N", "longitude": "136.372472E" },
  { "name": "JYAKO", "latitude": "33.464383N", "longitude": "132.311889E" },
  { "name": "JYAMU", "latitude": "33.451885N", "longitude": "133.503236E" },
  { "name": "JYOGA", "latitude": "35.084574N", "longitude": "139.313486E" },
  { "name": "JYONA", "latitude": "40.483209N", "longitude": "141.092651E" },
  { "name": "JYOZO", "latitude": "36.464227N", "longitude": "136.483637E" },
  { "name": "JYUGO", "latitude": "25.472492N", "longitude": "131.144583E" },
  { "name": "JYUOH", "latitude": "36.362442N", "longitude": "140.450547E" },
  { "name": "KABIL", "latitude": "33.285404N", "longitude": "133.171741E" },
  { "name": "KABKI", "latitude": "35.451405N", "longitude": "132.392949E" },
  { "name": "KABOS", "latitude": "33.412116N", "longitude": "131.501671E" },
  { "name": "KABRU", "latitude": "42.451126N", "longitude": "144.074453E" },
  { "name": "KABTO", "latitude": "45.122673N", "longitude": "141.474716E" },
  { "name": "KACHU", "latitude": "24.572614N", "longitude": "125.202795E" },
  { "name": "KADAD", "latitude": "34.440079N", "longitude": "131.313541E" },
  { "name": "KADAR", "latitude": "34.175517N", "longitude": "135.004778E" },
  { "name": "KADBO", "latitude": "39.140998N", "longitude": "137.444845E" },
  { "name": "KADON", "latitude": "28.123650N", "longitude": "129.492295E" },
  { "name": "KAETU", "latitude": "36.240780N", "longitude": "136.144765E" },
  { "name": "KAFRI", "latitude": "33.332084N", "longitude": "130.101768E" },
  { "name": "KAGAR", "latitude": "36.182317N", "longitude": "136.123401E" },
  { "name": "KAGAWA", "latitude": "34.124499N", "longitude": "134.012133E" },
  { "name": "KAGIS", "latitude": "35.491289N", "longitude": "142.334850E" },
  { "name": "KAGNA", "latitude": "34.591628N", "longitude": "138.590381E" },
  { "name": "KAGOSHIMA", "latitude": "31.415000N", "longitude": "130.345859E" },
  { "name": "KAGRA", "latitude": "43.402270N", "longitude": "142.194932E" },
  { "name": "KAGYA", "latitude": "30.473517N", "longitude": "130.551540E" },
  { "name": "KAHOC", "latitude": "33.284739N", "longitude": "130.401880E" },
  { "name": "KAIFU", "latitude": "33.361004N", "longitude": "134.323124E" },
  { "name": "KAIHO", "latitude": "35.185783N", "longitude": "139.464243E" },
  { "name": "KAIJI", "latitude": "35.440963N", "longitude": "139.580659E" },
  { "name": "KAIKE", "latitude": "35.294475N", "longitude": "133.171315E" },
  { "name": "KAINA", "latitude": "34.130652N", "longitude": "135.143471E" },
  { "name": "KAJYO", "latitude": "38.102106N", "longitude": "140.201069E" },
  { "name": "KAKDA", "latitude": "26.020248N", "longitude": "126.245677E" },
  { "name": "KAKEF", "latitude": "34.134591N", "longitude": "134.342643E" },
  { "name": "KAKNI", "latitude": "30.001459N", "longitude": "147.374694E" },
  { "name": "KAKNO", "latitude": "39.361225N", "longitude": "140.211623E" },
  { "name": "KALEK", "latitude": "35.123203N", "longitude": "129.530458E" },
  { "name": "KALGU", "latitude": "30.122399N", "longitude": "131.172239E" },
  { "name": "KALIG", "latitude": "42.585389N", "longitude": "155.400840E" },
  { "name": "KALNA", "latitude": "39.091381N", "longitude": "149.493181E" },
  { "name": "KALON", "latitude": "36.292379N", "longitude": "139.394644E" },
  { "name": "KALOO", "latitude": "34.325921N", "longitude": "135.051576E" },
  { "name": "KAMAR", "latitude": "24.254892N", "longitude": "140.430235E" },
  { "name": "KAMAT", "latitude": "35.335355N", "longitude": "139.414889E" },
  { "name": "KAMDO", "latitude": "41.514828N", "longitude": "141.153561E" },
  { "name": "KAMEO", "latitude": "34.570266N", "longitude": "135.280422E" },
  { "name": "KAMIG", "latitude": "33.000202N", "longitude": "129.065720E" },
  { "name": "KAMIS", "latitude": "41.473864N", "longitude": "140.402640E" },
  { "name": "KAMJI", "latitude": "26.160884N", "longitude": "127.383273E" },
  { "name": "KAMMY", "latitude": "34.592762N", "longitude": "134.411872E" },
  { "name": "KAMOG", "latitude": "34.462675N", "longitude": "140.502238E" },
  { "name": "KAMPU", "latitude": "24.362179N", "longitude": "124.482594E" },
  { "name": "KAMRU", "latitude": "34.443484N", "longitude": "138.205269E" },
  { "name": "KAMSA", "latitude": "37.430488N", "longitude": "133.440152E" },
  { "name": "KANAH", "latitude": "29.080352N", "longitude": "129.412227E" },
  { "name": "KANBE", "latitude": "34.343960N", "longitude": "133.155860E" },
  { "name": "KANGO", "latitude": "24.385287N", "longitude": "141.050923E" },
  { "name": "KANII", "latitude": "35.240040N", "longitude": "137.034603E" },
  { "name": "KANMO", "latitude": "33.493080N", "longitude": "130.591042E" },
  { "name": "KANNA", "latitude": "35.301127N", "longitude": "134.412195E" },
  { "name": "KANOH", "latitude": "36.163101N", "longitude": "136.071388E" },
  { "name": "KANPO", "latitude": "43.080267N", "longitude": "143.561377E" },
  { "name": "KANRO", "latitude": "45.110932N", "longitude": "140.545991E" },
  { "name": "KANTA", "latitude": "41.463515N", "longitude": "140.290156E" },
  { "name": "KANZA", "latitude": "34.560920N", "longitude": "138.093875E" },
  { "name": "KAORU", "latitude": "26.083827N", "longitude": "126.122712E" },
  { "name": "KAORY", "latitude": "43.030232N", "longitude": "141.440666E" },
  { "name": "KAPPA", "latitude": "36.421832N", "longitude": "132.513713E" },
  { "name": "KARAH", "latitude": "31.584141N", "longitude": "131.381857E" },
  { "name": "KAREI", "latitude": "33.380048N", "longitude": "131.441857E" },
  { "name": "KARII", "latitude": "25.484144N", "longitude": "127.230912E" },
  { "name": "KARIN", "latitude": "33.402443N", "longitude": "134.111486E" },
  { "name": "KARMA", "latitude": "35.504286N", "longitude": "140.551244E" },
  { "name": "KARPA", "latitude": "41.521481N", "longitude": "140.232816E" },
  { "name": "KASGA", "latitude": "35.542466N", "longitude": "139.491560E" },
  { "name": "KASHI", "latitude": "32.514668N", "longitude": "131.355253E" },
  { "name": "KASLY", "latitude": "33.304416N", "longitude": "133.105850E" },
  { "name": "KASTE", "latitude": "32.503613N", "longitude": "129.412161E" },
  { "name": "KATTA", "latitude": "34.001304N", "longitude": "131.411284E" },
  { "name": "KATUO", "latitude": "33.274279N", "longitude": "133.393702E" },
  { "name": "KAWAI", "latitude": "34.144986N", "longitude": "138.120706E" },
  { "name": "KAWAT", "latitude": "34.341937N", "longitude": "134.333230E" },
  { "name": "KAYKN", "latitude": "32.500806N", "longitude": "128.562117E" },
  { "name": "KAZAN", "latitude": "31.230613N", "longitude": "130.064056E" },
  { "name": "KAZIK", "latitude": "23.210584N", "longitude": "124.131777E" },
  { "name": "KAZMA", "latitude": "32.583774N", "longitude": "131.093405E" },
  { "name": "KAZMI", "latitude": "37.173559N", "longitude": "140.255209E" },
  { "name": "KAZRA", "latitude": "33.553750N", "longitude": "133.584570E" },
  { "name": "KAZSA", "latitude": "32.351018N", "longitude": "130.141077E" },
  { "name": "KBIRI", "latitude": "27.594245N", "longitude": "129.000929E" },
  { "name": "KEIKA", "latitude": "32.543915N", "longitude": "130.434326E" },
  { "name": "KEITH", "latitude": "21.000000N", "longitude": "134.564800E" },
  { "name": "KENDA", "latitude": "39.251370N", "longitude": "141.120787E" },
  { "name": "KENDI", "latitude": "39.355088N", "longitude": "140.251100E" },
  { "name": "KENGU", "latitude": "32.471179N", "longitude": "130.443949E" },
  { "name": "KENSI", "latitude": "38.415570N", "longitude": "139.351206E" },
  { "name": "KEPLA", "latitude": "31.393232N", "longitude": "130.515340E" },
  { "name": "KEYAH", "latitude": "33.361138N", "longitude": "130.031069E" },
  { "name": "KIBI", "latitude": "34.450138N", "longitude": "133.500620E" },
  { "name": "KIBIS", "latitude": "24.470612N", "longitude": "141.075073E" },
  { "name": "KIBIZ", "latitude": "27.434108N", "longitude": "128.510857E" },
  { "name": "KIBOM", "latitude": "36.270509N", "longitude": "138.064075E" },
  { "name": "KICKS", "latitude": "26.065075N", "longitude": "127.381171E" },
  { "name": "KIDAK", "latitude": "24.201028N", "longitude": "124.183667E" },
  { "name": "KIDAX", "latitude": "35.252723N", "longitude": "137.470047E" },
  { "name": "KIDOR", "latitude": "36.113764N", "longitude": "140.012924E" },
  { "name": "KIJYY", "latitude": "35.090180N", "longitude": "134.055493E" },
  { "name": "KIKMA", "latitude": "34.002749N", "longitude": "132.491196E" },
  { "name": "KIKOL", "latitude": "34.502772N", "longitude": "137.323529E" },
  { "name": "KIKTI", "latitude": "32.513805N", "longitude": "130.414933E" },
  { "name": "KIKYO", "latitude": "34.392164N", "longitude": "135.354946E" },
  { "name": "KIKYU", "latitude": "33.105113N", "longitude": "130.554034E" },
  { "name": "KILAP", "latitude": "33.380379N", "longitude": "136.453528E" },
  { "name": "KILCO", "latitude": "37.084305N", "longitude": "137.251977E" },
  { "name": "KILLY", "latitude": "39.381261N", "longitude": "139.584478E" },
  { "name": "KILOX", "latitude": "43.542992N", "longitude": "144.020612E" },
  { "name": "KIMIN", "latitude": "36.311950N", "longitude": "140.073818E" },
  { "name": "KIMUA", "latitude": "43.470135N", "longitude": "144.033141E" },
  { "name": "KINAI", "latitude": "34.392255N", "longitude": "135.235194E" },
  { "name": "KINEN", "latitude": "28.032124N", "longitude": "129.063241E" },
  { "name": "KINKA", "latitude": "36.321074N", "longitude": "136.425057E" },
  { "name": "KINKO", "latitude": "31.195821N", "longitude": "130.431203E" },
  { "name": "KINME", "latitude": "33.424939N", "longitude": "139.462339E" },
  { "name": "KINOE", "latitude": "34.102580N", "longitude": "132.501482E" },
  { "name": "KIRIN", "latitude": "34.071793N", "longitude": "130.491931E" },
  { "name": "KIROL", "latitude": "43.092741N", "longitude": "141.054926E" },
  { "name": "KISEI", "latitude": "33.280416N", "longitude": "135.194401E" },
  { "name": "KISHA", "latitude": "25.593888N", "longitude": "131.135686E" },
  { "name": "KISYU", "latitude": "33.420948N", "longitude": "135.210869E" },
  { "name": "KIZAK", "latitude": "31.441003N", "longitude": "131.373126E" },
  { "name": "KIZNA", "latitude": "26.261282N", "longitude": "127.314171E" },
  { "name": "KMANO", "latitude": "33.471320N", "longitude": "135.072441E" },
  { "name": "KOAJI", "latitude": "36.120876N", "longitude": "136.041039E" },
  { "name": "KOALA", "latitude": "35.590442N", "longitude": "140.125724E" },
  { "name": "KOANI", "latitude": "39.471632N", "longitude": "140.155479E" },
  { "name": "KOBIK", "latitude": "31.550037N", "longitude": "132.035246E" },
  { "name": "KOCHI", "latitude": "33.323042N", "longitude": "133.404857E" },
  { "name": "KODOH", "latitude": "37.575201N", "longitude": "138.530634E" },
  { "name": "KOEBI", "latitude": "26.054509N", "longitude": "126.355627E" },
  { "name": "KOFJI", "latitude": "33.531018N", "longitude": "132.370514E" },
  { "name": "KOFUK", "latitude": "42.354923N", "longitude": "143.171422E" },
  { "name": "KOGAR", "latitude": "36.071246N", "longitude": "139.412835E" },
  { "name": "KOHAK", "latitude": "37.224869N", "longitude": "138.443136E" },
  { "name": "KOHAM", "latitude": "24.235580N", "longitude": "124.021354E" },
  { "name": "KOHEI", "latitude": "33.505788N", "longitude": "131.253999E" },
  { "name": "KOHJO", "latitude": "25.430420N", "longitude": "131.132519E" },
  { "name": "KOHMA", "latitude": "24.431019N", "longitude": "125.140610E" },
  { "name": "KOHNO", "latitude": "32.591995N", "longitude": "129.424004E" },
  { "name": "KOHWA", "latitude": "34.421669N", "longitude": "136.572861E" },
  { "name": "KOHZA", "latitude": "33.211053N", "longitude": "131.011606E" },
  { "name": "KOIMA", "latitude": "33.185503N", "longitude": "130.100114E" },
  { "name": "KOITO", "latitude": "34.241661N", "longitude": "138.321733E" },
  { "name": "KOJYO", "latitude": "41.572930N", "longitude": "141.211453E" },
  { "name": "KOKTO", "latitude": "28.012779N", "longitude": "128.491710E" },
  { "name": "KOMAI", "latitude": "42.254004N", "longitude": "141.442454E" },
  { "name": "KOMAK", "latitude": "35.111096N", "longitude": "137.015953E" },
  { "name": "KOMATSU", "latitude": "36.234729N", "longitude": "136.241531E" },
  { "name": "KOMKE", "latitude": "44.125924N", "longitude": "143.322157E" },
  { "name": "KOMPI", "latitude": "34.100208N", "longitude": "133.523307E" },
  { "name": "KONAN", "latitude": "35.575878N", "longitude": "140.134497E" },
  { "name": "KONGO", "latitude": "32.453374N", "longitude": "128.532644E" },
  { "name": "KONGU", "latitude": "31.571416N", "longitude": "131.412311E" },
  { "name": "KONOS", "latitude": "37.205984N", "longitude": "136.563070E" },
  { "name": "KORAK", "latitude": "34.403139N", "longitude": "133.561817E" },
  { "name": "KOREI", "latitude": "35.315808N", "longitude": "133.210640E" },
  { "name": "KOSAI", "latitude": "34.460821N", "longitude": "137.280646E" },
  { "name": "KOSAK", "latitude": "34.391459N", "longitude": "135.354054E" },
  { "name": "KOSEI", "latitude": "35.172530N", "longitude": "135.571823E" },
  { "name": "KOSHI", "latitude": "31.171861N", "longitude": "129.575297E" },
  { "name": "KOSKA", "latitude": "35.152097N", "longitude": "139.351508E" },
  { "name": "KOUGA", "latitude": "34.205316N", "longitude": "139.161651E" },
  { "name": "KOUJI", "latitude": "34.202851N", "longitude": "129.160010E" },
  { "name": "KOUKI", "latitude": "30.434684N", "longitude": "130.383023E" },
  { "name": "KRAGE", "latitude": "36.062279N", "longitude": "135.540428E" },
  { "name": "KRAMA", "latitude": "35.130846N", "longitude": "136.025717E" },
  { "name": "KROBE", "latitude": "36.331310N", "longitude": "137.415197E" },
  { "name": "KROKI", "latitude": "33.021908N", "longitude": "130.384071E" },
  { "name": "KROMA", "latitude": "32.281304N", "longitude": "131.041323E" },
  { "name": "KROWA", "latitude": "24.464768N", "longitude": "124.435456E" },
  { "name": "KRURI", "latitude": "35.195408N", "longitude": "140.053106E" },
  { "name": "KUGIE", "latitude": "42.291289N", "longitude": "141.302402E" },
  { "name": "KUJYU", "latitude": "35.210395N", "longitude": "140.271984E" },
  { "name": "KUKAI", "latitude": "34.150982N", "longitude": "134.071065E" },
  { "name": "KUKUL", "latitude": "26.295198N", "longitude": "127.364155E" },
  { "name": "KULUL", "latitude": "34.095474N", "longitude": "134.213122E" },
  { "name": "KUMAMOTO", "latitude": "32.500529N", "longitude": "130.502945E" },
  { "name": "KUMEJIMA", "latitude": "26.221873N", "longitude": "126.431943E" },
  { "name": "KUMIK", "latitude": "35.495993N", "longitude": "134.051030E" },
  { "name": "KUMOZ", "latitude": "34.464096N", "longitude": "136.355554E" },
  { "name": "KUNIG", "latitude": "27.341703N", "longitude": "128.454885E" },
  { "name": "KUNOH", "latitude": "34.560330N", "longitude": "138.292773E" },
  { "name": "KURIM", "latitude": "24.390485N", "longitude": "125.105343E" },
  { "name": "KURIS", "latitude": "43.091882N", "longitude": "141.422162E" },
  { "name": "KUROZ", "latitude": "33.342067N", "longitude": "131.441661E" },
  { "name": "KUSHIMOTO", "latitude": "33.265187N", "longitude": "135.474018E" },
  { "name": "KUSHIRO", "latitude": "43.020978N", "longitude": "144.120272E" },
  { "name": "KYANN", "latitude": "26.002974N", "longitude": "127.391675E" },
  { "name": "KYODN", "latitude": "38.492339N", "longitude": "139.514110E" },
  { "name": "KYOGA", "latitude": "37.475499N", "longitude": "139.181119E" },
  { "name": "KYOKA", "latitude": "35.104637N", "longitude": "132.515370E" },
  { "name": "KYORA", "latitude": "28.375879N", "longitude": "129.421230E" },
  { "name": "KYOTO", "latitude": "34.494968N", "longitude": "135.444880E" },
  { "name": "KYOWA", "latitude": "39.362722N", "longitude": "140.183089E" },
  { "name": "KYUHO", "latitude": "34.405194N", "longitude": "135.333236E" },
  { "name": "KYURI", "latitude": "35.233946N", "longitude": "132.593061E" },
  { "name": "LABAN", "latitude": "35.491712N", "longitude": "139.410576E" },
  { "name": "LABEL", "latitude": "34.351610N", "longitude": "136.105250E" },
  { "name": "LAFCA", "latitude": "35.274756N", "longitude": "132.593332E" },
  { "name": "LAFIT", "latitude": "34.482597N", "longitude": "140.073237E" },
  { "name": "LAFRA", "latitude": "38.052260N", "longitude": "140.192716E" },
  { "name": "LAFTY", "latitude": "25.425698N", "longitude": "127.322022E" },
  { "name": "LAGER", "latitude": "33.523833N", "longitude": "130.150466E" },
  { "name": "LAGNA", "latitude": "34.503364N", "longitude": "137.093936E" },
  { "name": "LAKES", "latitude": "35.575090N", "longitude": "140.300136E" },
  { "name": "LAKOS", "latitude": "34.073025N", "longitude": "139.164118E" },
  { "name": "LAKUL", "latitude": "24.160639N", "longitude": "124.152414E" },
  { "name": "LALAG", "latitude": "32.133830N", "longitude": "130.404956E" },
  { "name": "LALAH", "latitude": "34.553780N", "longitude": "134.233950E" },
  { "name": "LALID", "latitude": "35.563875N", "longitude": "141.455207E" },
  { "name": "LANAT", "latitude": "36.222365N", "longitude": "131.254194E" },
  { "name": "LANCE", "latitude": "37.542195N", "longitude": "140.283364E" },
  { "name": "LAPIL", "latitude": "35.171655N", "longitude": "144.573248E" },
  { "name": "LAPIS", "latitude": "35.343727N", "longitude": "140.323316E" },
  { "name": "LAPNA", "latitude": "24.181795N", "longitude": "124.124488E" },
  { "name": "LARCH", "latitude": "41.301145N", "longitude": "141.475471E" },
  { "name": "LARIX", "latitude": "35.561165N", "longitude": "140.184557E" },
  { "name": "LARKS", "latitude": "36.020987N", "longitude": "140.142120E" },
  { "name": "LASOD", "latitude": "27.454176N", "longitude": "128.351680E" },
  { "name": "LATOR", "latitude": "35.192316N", "longitude": "132.462699E" },
  { "name": "LAUDA", "latitude": "35.414481N", "longitude": "139.413905E" },
  { "name": "LAURA", "latitude": "34.372624N", "longitude": "137.221486E" },
  { "name": "LAVON", "latitude": "26.101346N", "longitude": "127.220531E" },
  { "name": "LAVOT", "latitude": "38.513468N", "longitude": "140.421554E" },
  { "name": "LAXAS", "latitude": "35.015307N", "longitude": "139.143278E" },
  { "name": "LAXEL", "latitude": "32.053424N", "longitude": "135.093197E" },
  { "name": "LAYER", "latitude": "35.392540N", "longitude": "139.282952E" },
  { "name": "LEBAG", "latitude": "29.215802N", "longitude": "131.351363E" },
  { "name": "LEBIX", "latitude": "21.000000N", "longitude": "123.543000E" },
  { "name": "LEBOS", "latitude": "35.382841N", "longitude": "138.401106E" },
  { "name": "LEDAX", "latitude": "45.054275N", "longitude": "141.340608E" },
  { "name": "LEDOP", "latitude": "42.073811N", "longitude": "139.181502E" },
  { "name": "LEENO", "latitude": "33.022331N", "longitude": "130.165153E" },
  { "name": "LEKOL", "latitude": "39.502556N", "longitude": "140.541302E" },
  { "name": "LEKUP", "latitude": "43.062723N", "longitude": "144.271994E" },
  { "name": "LEKUT", "latitude": "34.241993N", "longitude": "136.065539E" },
  { "name": "LELAD", "latitude": "32.011721N", "longitude": "130.012289E" },
  { "name": "LELIN", "latitude": "34.200614N", "longitude": "138.011724E" },
  { "name": "LEMEG", "latitude": "29.201821N", "longitude": "129.310940E" },
  { "name": "LEMON", "latitude": "34.132886N", "longitude": "132.274892E" },
  { "name": "LEMUM", "latitude": "36.080603N", "longitude": "139.505237E" },
  { "name": "LEONA", "latitude": "32.353404N", "longitude": "132.043627E" },
  { "name": "LEPGU", "latitude": "35.302944N", "longitude": "134.092699E" },
  { "name": "LEPKI", "latitude": "37.000000N", "longitude": "150.000000E" },
  { "name": "LESKA", "latitude": "30.155715N", "longitude": "127.422495E" },
  { "name": "LESMO", "latitude": "35.411027N", "longitude": "139.582939E" },
  { "name": "LESPO", "latitude": "35.463600N", "longitude": "141.453779E" },
  { "name": "LEWIS", "latitude": "36.135315N", "longitude": "140.083474E" },
  { "name": "LEXUS", "latitude": "27.001011N", "longitude": "128.192839E" },
  { "name": "LICEN", "latitude": "36.183062N", "longitude": "140.285742E" },
  { "name": "LICOR", "latitude": "35.064642N", "longitude": "136.391814E" },
  { "name": "LIDEL", "latitude": "40.323431N", "longitude": "143.123808E" },
  { "name": "LIGNI", "latitude": "34.414926N", "longitude": "140.265227E" },
  { "name": "LILAC", "latitude": "34.271073N", "longitude": "134.584201E" },
  { "name": "LILLY", "latitude": "27.363503N", "longitude": "128.502973E" },
  { "name": "LILPI", "latitude": "34.285415N", "longitude": "136.011417E" },
  { "name": "LILRA", "latitude": "24.494652N", "longitude": "124.521549E" },
  { "name": "LINDA", "latitude": "34.301576N", "longitude": "134.514012E" },
  { "name": "LINEN", "latitude": "35.491664N", "longitude": "139.380598E" },
  { "name": "LIPLO", "latitude": "27.592900N", "longitude": "123.595800E" },
  { "name": "LIVET", "latitude": "37.040352N", "longitude": "140.143638E" },
  { "name": "LOCUP", "latitude": "35.271882N", "longitude": "139.560852E" },
  { "name": "LOOFA", "latitude": "34.350850N", "longitude": "135.082388E" },
  { "name": "LOPIA", "latitude": "35.522307N", "longitude": "140.155244E" },
  { "name": "LORRY", "latitude": "35.464248N", "longitude": "139.380665E" },
  { "name": "LOSOC", "latitude": "36.085689N", "longitude": "133.142274E" },
  { "name": "LOSVA", "latitude": "36.172898N", "longitude": "142.154203E" },
  { "name": "LOVER", "latitude": "42.525971N", "longitude": "141.401416E" },
  { "name": "LUBBY", "latitude": "35.365770N", "longitude": "139.544505E" },
  { "name": "LUBEK", "latitude": "44.010877N", "longitude": "142.582282E" },
  { "name": "LUBLA", "latitude": "35.323504N", "longitude": "141.255078E" },
  { "name": "LUCCA", "latitude": "35.413282N", "longitude": "140.401138E" },
  { "name": "LUFFY", "latitude": "33.331203N", "longitude": "132.183734E" },
  { "name": "LUGNO", "latitude": "30.390336N", "longitude": "130.551869E" },