{
  "routes": [
    {
      "name": "M523",
      "description": "Route M523 from HARKI to IPGUD",
      "points": [
        {
          "name": "HARKI",
          "latitude": 49.356389,
          "longitude": 159.685556,
          "type": "waypoint"
        },
        {
          "name": "IGPAK",
          "latitude": 45.874444,
          "longitude": 153.363889,
          "type": "waypoint"
        },
        {
          "name": "ISMAV",
          "latitude": 42.066111,
          "longitude": 147.848611,
          "type": "waypoint"
        },
        {
          "name": "IPGUD",
          "latitude": 38.614167,
          "longitude": 143.646944,
          "type": "waypoint"
        }
      ]
    },
    {
      "name": "Q1",
      "description": "Route Q1 from BUICK to MINAMIDAITO",
      "points": [
        {
          "name": "BUICK",
          "latitude": 26.068333,
          "longitude": 128.743611,
          "type": "waypoint"
        },
        {
          "name": "AKUSI",
          "latitude": 25.899722,
          "longitude": 130.711944,
          "type": "waypoint"
        },
        {
          "name": "CORCO",
          "latitude": 25.873889,
          "longitude": 130.9875,
          "type": "waypoint"
        },
        {
          "name": "WHALE",
          "latitude": 25.8675,
          "longitude": 131.079722,
          "type": "waypoint"
        },
        {
          "name": "MINAMIDAITO",
          "latitude": 25.854444,
          "longitude": 131.263889,
          "type": "VOR/DME"
        }
      ]
    },
    {
      "name": "Y10",
      "description": "Route Y10 from LUMIN to GODIN",
      "points": [
        {
          "name": "LUMIN",
          "latitude": 45.75,
          "longitude": 141.838333,
          "type": "waypoint"
        },
        {
          "name": "WAKKANAI",
          "latitude": 45.407222,
          "longitude": 141.805556,
          "type": "waypoint"
        },
        {
          "name": "YOROI",
          "latitude": 45.008611,
          "longitude": 141.785556,
          "type": "waypoint"
        },
        {
          "name": "RUMOI",
          "latitude": 43.699444,
          "longitude": 141.729167,
          "type": "waypoint"
        },
        {
          "name": "CHITOSE",
          "latitude": 42.69990277777777,
          "longitude": 141.68616666666668,
          "type": "waypoint"
        },
        {
          "name": "TOBBY",
          "latitude": 41.918611,
          "longitude": 141.76,
          "type": "waypoint"
        },
        {
          "name": "LARCH",
          "latitude": 41.503056,
          "longitude": 141.798611,
          "type": "waypoint"
        },
        {
          "name": "PANSY",
          "latitude": 40.003889,
          "longitude": 141.32,
          "type": "waypoint"
        },
        {
          "name": "HANAMAKI",
          "latitude": 39.433333,
          "longitude": 141.133611,
          "type": "waypoint"
        },
        {
          "name": "VINAR",
          "latitude": 38.760556,
          "longitude": 140.931944,
          "type": "waypoint"
        },
        {
          "name": "ZAHAN",
          "latitude": 38.559167,
          "longitude": 140.872222,
          "type": "waypoint"
        },
        {
          "name": "RUBIS",
          "latitude": 37.7475,
          "longitude": 140.635556,
          "type": "waypoint"
        },
        {
          "name": "ASHRA",
          "latitude": 37.254444,
          "longitude": 140.494167,
          "type": "waypoint"
        },
        {
          "name": "SASAP",
          "latitude": 37.181944,
          "longitude": 140.473333,
          "type": "waypoint"
        },
        {
          "name": "GUSGI",
          "latitude": 36.927222,
          "longitude": 140.401389,
          "type": "waypoint"
        },
        {
          "name": "DAIGO",
          "latitude": 36.744444,
          "longitude": 140.349722,
          "type": "waypoint"
        },
        {
          "name": "TEDIX",
          "latitude": 36.631111,
          "longitude": 140.326944,
          "type": "waypoint"
        },
        {
          "name": "GODIN",
          "latitude": 36.406944,
          "longitude": 140.282222,
          "type": "waypoint"
        }
      ]
    },
    {
      "name": "Y100",
      "description": "Route Y100 from AOMORI to HANAMAKI",
      "points": [
        {
          "name": "AOMORI",
          "latitude": 40.738889,
          "longitude": 140.705278,
          "type": "waypoint"
        },
        {
          "name": "ESBUN",
          "latitude": 40.151944,
          "longitude": 141.038611,
          "type": "waypoint"
        },
        {
          "name": "ENBIM",
          "latitude": 39.921944,
          "longitude": 141.1675,
          "type": "waypoint"
        },
        {
          "name": "HANAMAKI",
          "latitude": 39.433333,
          "longitude": 141.133611,
          "type": "waypoint"
        }
      ]
    },
    {
      "name": "Y101",
      "description": "Route Y101 from RUGMO to TOBBY",
      "points": [
        {
          "name": "RUGMO",
          "latitude": 43.076111,
          "longitude": 143.496944,
          "type": "waypoint"
        },
        {
          "name": "MUKAWA",
          "latitude": 42.555,
          "longitude": 141.955556,
          "type": "waypoint"
        },
        {
          "name": "TOBBY",
          "latitude": 41.918611,
          "longitude": 141.76,
          "type": "waypoint"
        }
      ]
    },
    {
      "name": "Y102",
      "description": "Route Y102 from CAVES to FUKUSHIMA",
      "points": [
        {
          "name": "CAVES",
          "latitude": 40.264167,
          "longitude": 141.915278,
          "type": "waypoint"
        },
        {
          "name": "HANAMAKI",
          "latitude": 39.433333,
          "longitude": 141.133611,
          "type": "waypoint"
        },
        {
          "name": "METEL",
          "latitude": 38.557222,
          "longitude": 140.989167,
          "type": "waypoint"
        },
        {
          "name": "SENDAI",
          "latitude": 38.138611,
          "longitude": 140.921389,
          "type": "waypoint"
        },
        {
          "name": "HERON",
          "latitude": 37.532222,
          "longitude": 140.598889,
          "type": "waypoint"
        },
        {
          "name": "FUKUSHIMA",
          "latitude": 37.224444,
          "longitude": 140.437222,
          "type": "waypoint"
        }
      ]
    },
    {
      "name": "Y103",
      "description": "Route Y103 from KAGRA to TOBBY",
      "points": [
        {
          "name": "KAGRA",
          "latitude": 43.673056,
          "longitude": 142.330278,
          "type": "waypoint"
        },
        {
          "name": "UTASI",
          "latitude": 43.52543611111111,
          "longitude": 142.02392222222224,
          "type": "waypoint"
        },
        {
          "name": "OLMOK",
          "latitude": 43.226667,
          "longitude": 141.973611,
          "type": "waypoint"
        },
        {
          "name": "TOBBY",
          "latitude": 41.918611,
          "longitude": 141.76,
          "type": "waypoint"
        }
      ]
    },
    {
      "name": "Y104",
      "description": "Route Y104 from AKSUN to YOROI",
      "points": [
        {
          "name": "AKSUN",
          "latitude": 45.751944,
          "longitude": 140.904444,
          "type": "waypoint"
        },
        {
          "name": "ORISU",
          "latitude": 45.466111,
          "longitude": 141.063889,
          "type": "waypoint"
        },
        {
          "name": "RISHIRI",
          "latitude": 45.245556,
          "longitude": 141.186667,
          "type": "waypoint"
        },
        {
          "name": "LEDAX",
          "latitude": 45.095278,
          "longitude": 141.568333,
          "type": "waypoint"
        },
        {
          "name": "YOROI",
          "latitude": 45.008611,
          "longitude": 141.785556,
          "type": "waypoint"
        }
      ]
    },
    {
      "name": "Y105",
      "description": "Route Y105 from NOMOX to YUDOH",
      "points": [
        {
          "name": "NOMOX",
          "latitude": 43.32,
          "longitude": 144.473333,
          "type": "waypoint"
        },
        {
          "name": "KUSHIRO",
          "latitude": 43.036111,
          "longitude": 144.200833,
          "type": "waypoint"
        },
        {
          "name": "YUDOH",
          "latitude": 42.501389,
          "longitude": 143.746389,
          "type": "waypoint"
        }
      ]
    },
    {
      "name": "Y106",
      "description": "Route Y106 from MIYAKO to RUBIS",
      "points": [
        {
          "name": "MIYAKO",
          "latitude": 39.865556,
          "longitude": 141.951111,
          "type": "waypoint"
        },
        {
          "name": "SENDAI",
          "latitude": 38.138611,
          "longitude": 140.921389,
          "type": "waypoint"
        },
        {
          "name": "RUBIS",
          "latitude": 37.7475,
          "longitude": 140.635556,
          "type": "waypoint"
        }
      ]
    },
    {
      "name": "Y107",
      "description": "Route Y107 from STONE to UTIBO",
      "points": [
        {
          "name": "STONE",
          "latitude": 36.279722,
          "longitude": 140.256667,
          "type": "waypoint"
        },
        {
          "name": "COLOR",
          "latitude": 36.021111,
          "longitude": 140.205556,
          "type": "waypoint"
        },
        {
          "name": "HONDA",
          "latitude": 35.57146388888889,
          "longitude": 140.18851111111113,
          "type": "waypoint"
        },
        {
          "name": "YOHRO",
          "latitude": 34.971389,
          "longitude": 140.16,
          "type": "waypoint"
        },
        {
          "name": "UTIBO",
          "latitude": 34.946389,
          "longitude": 139.895556,
          "type": "waypoint"
        }
      ]
    },
    {
      "name": "Y108",
      "description": "Route Y108 from DAIGO to MESSE",
      "points": [
        {
          "name": "DAIGO",
          "latitude": 36.744444,
          "longitude": 140.349722,
          "type": "waypoint"
        },
        {
          "name": "INUBO",
          "latitude": 35.726389,
          "longitude": 140.799444,
          "type": "waypoint"
        },
        {
          "name": "MESSE",
          "latitude": 35.18354444444444,
          "longitude": 140.37075000000002,
          "type": "waypoint"
        }
      ]
    },
    {
      "name": "Y11",
      "description": "Route Y11 from CHITOSE to AGRIS",
      "points": [
        {
          "name": "CHITOSE",
          "latitude": 42.7,
          "longitude": 141.686111,
          "type": "waypoint"
        },
        {
          "name": "NAVER",
          "latitude": 42.128889,
          "longitude": 141.524722,
          "type": "waypoint"
        },
        {
          "name": "IBURI",
          "latitude": 41.933056,
          "longitude": 141.469722,
          "type": "waypoint"
        },
        {
          "name": "NONUT",
          "latitude": 41.851389,
          "longitude": 141.446667,
          "type": "waypoint"
        },
        {
          "name": "CAPLY",
          "latitude": 41.298056,
          "longitude": 141.291944,
          "type": "waypoint"
        },
        {
          "name": "JYONA",
          "latitude": 40.808889,
          "longitude": 141.1575,
          "type": "waypoint"
        },
        {
          "name": "SAMBO",
          "latitude": 40.187755555555555,
          "longitude": 140.95038055555554,
          "type": "waypoint"
        },
        {
          "name": "PEONY",
          "latitude": 39.840556,
          "longitude": 140.833333,
          "type": "waypoint"
        },
        {
          "name": "VARSU",
          "latitude": 39.501111,
          "longitude": 140.720278,
          "type": "waypoint"
        },
        {
          "name": "HANKA",
          "latitude": 39.018333,
          "longitude": 140.561389,
          "type": "waypoint"
        },
        {
          "name": "YAMAGATA",
          "latitude": 38.388611,
          "longitude": 140.358056,
          "type": "waypoint"
        },
        {
          "name": "SHIRO",
          "latitude": 37.613333,
          "longitude": 140.153056,
          "type": "waypoint"
        },
        {
          "name": "SADVO",
          "latitude": 37.531389,
          "longitude": 140.131667,
          "type": "waypoint"
        },
        {
          "name": "SYOEN",
          "latitude": 37.038611,
          "longitude": 140.003889,
          "type": "waypoint"
        },
        {
          "name": "YAITA",
          "latitude": 36.875278,
          "longitude": 139.961944,
          "type": "waypoint"
        },
        {
          "name": "AGRIS",
          "latitude": 36.420833,
          "longitude": 139.9425,
          "type": "waypoint"
        }
      ]
    },
    {
      "name": "Y110",
      "description": "Route Y110 from OBIHIRO to EPDOM",
      "points": [
        {
          "name": "OBIHIRO",
          "latitude": 42.733889,
          "longitude": 143.220556,
          "type": "waypoint"
        },
        {
          "name": "TAIKI",
          "latitude": 42.451667,
          "longitude": 143.357778,
          "type": "waypoint"
        },
        {
          "name": "RACKO",
          "latitude": 42.1925,
          "longitude": 143.483889,
          "type": "waypoint"
        },
        {
          "name": "HIROO",
          "latitude": 41.967222,
          "longitude": 143.591944,
          "type": "waypoint"
        },
        {
          "name": "IGDIP",
          "latitude": 41.689167,
          "longitude": 143.724444,
          "type": "waypoint"
        },
        {
          "name": "EPDOM",
          "latitude": 41.37,
          "longitude": 143.874722,
          "type": "waypoint"
        }
      ]
    },
    {
      "name": "Y111",
      "description": "Route Y111 from MEMANBETSU to YAMAGATA",
      "points": [
        {
          "name": "MEMANBETSU",
          "latitude": 43.885,
          "longitude": 144.166111,
          "type": "waypoint"
        },
        {
          "name": "OZORA",
          "latitude": 43.485556,
          "longitude": 144.198056,
          "type": "waypoint"
        },
        {
          "name": "KUSHIRO",
          "latitude": 43.036049999999996,
          "longitude": 144.20075555555553,
          "type": "waypoint"
        },
        {
          "name": "CRANE",
          "latitude": 42.821389,
          "longitude": 144.146389,
          "type": "waypoint"
        },
        {
          "name": "AKESI",
          "latitude": 42.554444,
          "longitude": 144.073333,
          "type": "waypoint"
        },
        {
          "name": "SUMGA",
          "latitude": 42.315,
          "longitude": 143.977222,
          "type": "waypoint"
        },
        {
          "name": "IGDIP",
          "latitude": 41.689167,
          "longitude": 143.724444,
          "type": "waypoint"
        },
        {
          "name": "OMGOL",
          "latitude": 40.584444,
          "longitude": 143.289444,
          "type": "waypoint"
        },
        {
          "name": "MIYAKO",
          "latitude": 39.865556,
          "longitude": 141.951111,
          "type": "waypoint"
        },
        {
          "name": "YAMAGATA",
          "latitude": 38.388622222222224,
          "longitude": 140.35795277777777,
          "type": "waypoint"
        }
      ]
    },
    {
      "name": "Y112",
      "description": "Route Y112 from MENIB to OMGOL",
      "points": [
        {
          "name": "MENIB",
          "latitude": 43.491389,
          "longitude": 144.473056,
          "type": "waypoint"
        },
        {
          "name": "NOMOX",
          "latitude": 43.32,
          "longitude": 144.473333,
          "type": "waypoint"
        },
        {
          "name": "ONISO",
          "latitude": 43.0175,
          "longitude": 144.473611,
          "type": "waypoint"
        },
        {
          "name": "ENTOD",
          "latitude": 42.530556,
          "longitude": 144.348333,
          "type": "waypoint"
        },
        {
          "name": "PADMO",
          "latitude": 42.314444,
          "longitude": 144.258889,
          "type": "waypoint"
        },
        {
          "name": "EPDOM",
          "latitude": 41.37,
          "longitude": 143.874722,
          "type": "waypoint"
        },
        {
          "name": "ESLUK",
          "latitude": 40.764722,
          "longitude": 143.634444,
          "type": "waypoint"
        },
        {
          "name": "OMGOL",
          "latitude": 40.584444,
          "longitude": 143.289444,
          "type": "waypoint"
        }
      ]
    },
    {
      "name": "Y113",
      "description": "Route Y113 from HAKODATE to YAMAGATA",
      "points": [
        {
          "name": "HAKODATE",
          "latitude": 41.774167,
          "longitude": 140.832222,
          "type": "waypoint"
        },
        {
          "name": "TAXIR",
          "latitude": 41.442222,
          "longitude": 140.791111,
          "type": "waypoint"
        },
        {
          "name": "HIBAR",
          "latitude": 41.110556,
          "longitude": 140.750556,
          "type": "waypoint"
        },
        {
          "name": "BYOBU",
          "latitude": 41.002778,
          "longitude": 140.737222,
          "type": "waypoint"
        },
        {
          "name": "AOMORI",
          "latitude": 40.738889,
          "longitude": 140.705278,
          "type": "waypoint"
        },
        {
          "name": "YACHI",
          "latitude": 40.490278,
          "longitude": 140.668056,
          "type": "waypoint"
        },
        {
          "name": "HINAI",
          "latitude": 40.291667,
          "longitude": 140.638333,
          "type": "waypoint"
        },
        {
          "name": "ORUMU",
          "latitude": 39.954444,
          "longitude": 140.588611,
          "type": "waypoint"
        },
        {
          "name": "WAPPA",
          "latitude": 39.701111,
          "longitude": 140.551667,
          "type": "waypoint"
        },
        {
          "name": "YAMAGATA",
          "latitude": 38.388622222222224,
          "longitude": 140.35795277777777,
          "type": "waypoint"
        }
      ]
    },
    {
      "name": "Y114",
      "description": "Route Y114 from ANIMO to ASAHIKAWA",
      "points": [
        {
          "name": "ANIMO",
          "latitude": 45.198889,
          "longitude": 143.679167,
          "type": "waypoint"
        },
        {
          "name": "ASAHIKAWA",
          "latitude": 43.66726388888889,
          "longitude": 142.45684722222222,
          "type": "waypoint"
        }
      ]
    },
    {
      "name": "Y115",
      "description": "Route Y115 from USUBA to HATRI",
      "points": [
        {
          "name": "USUBA",
          "latitude": 38.537222,
          "longitude": 140.1625,
          "type": "waypoint"
        },
        {
          "name": "GASAN",
          "latitude": 38.12,
          "longitude": 140.158333,
          "type": "waypoint"
        },
        {
          "name": "SHIRO",
          "latitude": 37.613333,
          "longitude": 140.153056,
          "type": "waypoint"
        },
        {
          "name": "HATRI",
          "latitude": 37.38322222222222,
          "longitude": 140.15524166666668,
          "type": "waypoint"
        }
      ]
    },
    {
      "name": "Y116",
      "description": "Route Y116 from BISIV to CHITOSE",
      "points": [
        {
          "name": "BISIV",
          "latitude": 44.991944,
          "longitude": 144.282778,
          "type": "waypoint"
        },
        {
          "name": "MONBETSU",
          "latitude": 44.305278,
          "longitude": 143.395,
          "type": "waypoint"
        },
        {
          "name": "LUBEK",
          "latitude": 44.019167,
          "longitude": 142.973056,
          "type": "waypoint"
        },
        {
          "name": "ASAHIKAWA",
          "latitude": 43.667222,
          "longitude": 142.456944,
          "type": "waypoint"
        },
        {
          "name": "ASIBE",
          "latitude": 43.451111,
          "longitude": 142.283611,
          "type": "waypoint"
        },
        {
          "name": "CHITOSE",
          "latitude": 42.69990277777777,
          "longitude": 141.68616666666668,
          "type": "waypoint"
        }
      ]
    },
    {
      "name": "Y117",
      "description": "Route Y117 from JYONA to KIMIN",
      "points": [
        {
          "name": "JYONA",
          "latitude": 40.808889,
          "longitude": 141.1575,
          "type": "waypoint"
        },
        {
          "name": "LEKOL",
          "latitude": 39.840556,
          "longitude": 140.903611,
          "type": "waypoint"
        },
        {
          "name": "TOLEK",
          "latitude": 39.136944,
          "longitude": 140.723611,
          "type": "waypoint"
        },
        {
          "name": "NISEP",
          "latitude": 38.267222,
          "longitude": 140.506389,
          "type": "waypoint"
        },
        {
          "name": "NIRAX",
          "latitude": 37.727222,
          "longitude": 140.373889,
          "type": "waypoint"
        },
        {
          "name": "BUSNI",
          "latitude": 37.578056,
          "longitude": 140.337778,
          "type": "waypoint"
        },
        {
          "name": "NASNO",
          "latitude": 36.885,
          "longitude": 140.171111,
          "type": "waypoint"
        },
        {
          "name": "KIMIN",
          "latitude": 36.522083333333335,
          "longitude": 140.12727222222222,
          "type": "waypoint"
        }
      ]
    },
    {
      "name": "Y118",
      "description": "Route Y118 from UBRAS to NOMOX",
      "points": [
        {
          "name": "UBRAS",
          "latitude": 44.268611,
          "longitude": 144.707222,
          "type": "waypoint"
        },
        {
          "name": "NOMOX",
          "latitude": 43.32,
          "longitude": 144.473333,
          "type": "waypoint"
        }
      ]
    },
    {
      "name": "Y119",
      "description": "Route Y119 from OHMAR to LEKOL",
      "points": [
        {
          "name": "OHMAR",
          "latitude": 41.309444,
          "longitude": 140.987778,
          "type": "waypoint"
        },
        {
          "name": "ELBIT",
          "latitude": 40.738889,
          "longitude": 140.968611,
          "type": "waypoint"
        },
        {
          "name": "SAMBO",
          "latitude": 40.187778,
          "longitude": 140.950278,
          "type": "waypoint"
        },
        {
          "name": "LEKOL",
          "latitude": 39.84043333333334,
          "longitude": 140.90361666666666,
          "type": "waypoint"
        }
      ]
    },
    {
      "name": "Y12",
      "description": "Route Y12 from CHITOSE to LAXEL",
      "points": [
        {
          "name": "CHITOSE",
          "latitude": 42.7,
          "longitude": 141.686111,
          "type": "waypoint"
        },
        {
          "name": "HAKODATE",
          "latitude": 41.774167,
          "longitude": 140.832222,
          "type": "waypoint"
        },
        {
          "name": "TAPPI",
          "latitude": 41.134722,
          "longitude": 140.165,
          "type": "waypoint"
        },
        {
          "name": "ARIKA",
          "latitude": 40.443611,
          "longitude": 139.927778,
          "type": "waypoint"
        },
        {
          "name": "OTOME",
          "latitude": 40.003611,
          "longitude": 139.779444,
          "type": "waypoint"
        },
        {
          "name": "NIIGATA",
          "latitude": 37.958333,
          "longitude": 139.115,
          "type": "waypoint"
        },
        {
          "name": "IPKIL",
          "latitude": 37.433333,
          "longitude": 138.760278,
          "type": "waypoint"
        },
        {
          "name": "FINGA",
          "latitude": 37.125833,
          "longitude": 138.555278,
          "type": "waypoint"
        },
        {
          "name": "ISDAM",
          "latitude": 36.820278,
          "longitude": 138.353056,
          "type": "waypoint"
        },
        {
          "name": "KIBOM",
          "latitude": 36.451389,
          "longitude": 138.111389,
          "type": "waypoint"
        },
        {
          "name": "MATSUMOTO",
          "latitude": 36.156111,
          "longitude": 137.919722,
          "type": "waypoint"
        },
        {
          "name": "MATPI",
          "latitude": 35.878056,
          "longitude": 137.7325,
          "type": "waypoint"
        },
        {
          "name": "IPNUN",
          "latitude": 35.671667,
          "longitude": 137.594444,
          "type": "waypoint"
        },
        {
          "name": "TOLUM",
          "latitude": 35.573333,
          "longitude": 137.528889,
          "type": "waypoint"
        },
        {
          "name": "NAKTU",
          "latitude": 35.467222,
          "longitude": 137.463056,
          "type": "waypoint"
        },
        {
          "name": "POTEB",
          "latitude": 35.144722,
          "longitude": 137.248056,
          "type": "waypoint"
        },
        {
          "name": "KOHWA",
          "latitude": 34.704722,
          "longitude": 136.958056,
          "type": "waypoint"
        },
        {
          "name": "SHIMA",
          "latitude": 34.30438888888889,
          "longitude": 136.58867777777778,
          "type": "waypoint"
        },
        {
          "name": "AYANO",
          "latitude": 34.096111,
          "longitude": 136.393611,
          "type": "waypoint"
        },
        {
          "name": "RAYJO",
          "latitude": 33.83,
          "longitude": 136.146389,
          "type": "waypoint"
        },
        {
          "name": "KUSHIMOTO",
          "latitude": 33.447778,
          "longitude": 135.794444,
          "type": "waypoint"
        },
        {
          "name": "LAXEL",
          "latitude": 32.092844444444445,
          "longitude": 135.15888055555556,
          "type": "waypoint"
        }
      ]
    },
    {
      "name": "Y120",
      "description": "Route Y120 from DALBI to OBAKO",
      "points": [
        {
          "name": "DALBI",
          "latitude": 42.080278,
          "longitude": 140.514444,
          "type": "waypoint"
        },
        {
          "name": "RURUD",
          "latitude": 41.588056,
          "longitude": 140.331389,
          "type": "waypoint"
        },
        {
          "name": "TAPPI",
          "latitude": 41.134722,
          "longitude": 140.165,
          "type": "waypoint"
        },
        {
          "name": "OBAKO",
          "latitude": 40.07287222222222,
          "longitude": 140.05447500000002,
          "type": "waypoint"
        }
      ]
    },
    {
      "name": "Y121",
      "description": "Route Y121 from MATSUMOTO to LABEL",
      "points": [
        {
          "name": "MATSUMOTO",
          "latitude": 36.156111,
          "longitude": 137.919722,
          "type": "waypoint"
        },
        {
          "name": "RIPSI",
          "latitude": 35.894444,
          "longitude": 137.6925,
          "type": "waypoint"
        },
        {
          "name": "MAPLE",
          "latitude": 35.705556,
          "longitude": 137.529722,
          "type": "waypoint"
        },
        {
          "name": "MAMLA",
          "latitude": 35.563056,
          "longitude": 137.406944,
          "type": "waypoint"
        },
        {
          "name": "SWING",
          "latitude": 35.389444,
          "longitude": 137.258056,
          "type": "waypoint"
        },
        {
          "name": "CHUBU",
          "latitude": 34.858056,
          "longitude": 136.803056,
          "type": "waypoint"
        },
        {
          "name": "LABEL",
          "latitude": 34.587805555555555,
          "longitude": 136.18124999999998,
          "type": "waypoint"
        }
      ]
    },
    {
      "name": "Y122",
      "description": "Route Y122 from HAKODATE to NIIGATA",
      "points": [
        {
          "name": "HAKODATE",
          "latitude": 41.774167,
          "longitude": 140.832222,
          "type": "waypoint"
        },
        {
          "name": "OBAKO",
          "latitude": 40.072778,
          "longitude": 140.054444,
          "type": "waypoint"
        },
        {
          "name": "YOHKO",
          "latitude": 39.151389,
          "longitude": 139.635278,
          "type": "waypoint"
        },
        {
          "name": "ATUMI",
          "latitude": 38.636944,
          "longitude": 139.406111,
          "type": "waypoint"
        },
        {
          "name": "BUDOH",
          "latitude": 38.399722,
          "longitude": 139.308611,
          "type": "waypoint"
        },
        {
          "name": "INAHO",
          "latitude": 38.163056,
          "longitude": 139.204722,
          "type": "waypoint"
        },
        {
          "name": "NIIGATA",
          "latitude": 37.95829444444445,
          "longitude": 139.1148861111111,
          "type": "waypoint"
        }
      ]
    },
    {
      "name": "Y124",
      "description": "Route Y124 from MIYAKO to NIIGATA",
      "points": [
        {
          "name": "MIYAKO",
          "latitude": 39.865556,
          "longitude": 141.951111,
          "type": "waypoint"
        },
        {
          "name": "HANAMAKI",
          "latitude": 39.433333,
          "longitude": 141.133611,
          "type": "waypoint"
        },
        {
          "name": "TOLEK",
          "latitude": 39.136944,
          "longitude": 140.723611,
          "type": "waypoint"
        },
        {
          "name": "HANKA",
          "latitude": 39.018333,
          "longitude": 140.561389,
          "type": "waypoint"
        },
        {
          "name": "MAMRO",
          "latitude": 38.833611,
          "longitude": 140.296667,
          "type": "waypoint"
        },
        {
          "name": "NIIGATA",
          "latitude": 37.95829444444445,
          "longitude": 139.1148861111111,
          "type": "waypoint"
        }
      ]
    },
    {
      "name": "Y125",
      "description": "Route Y125 from RURUD to JUGEM",
      "points": [
        {
          "name": "RURUD",
          "latitude": 41.588056,
          "longitude": 140.331389,
          "type": "waypoint"
        },
        {
          "name": "IWASE",
          "latitude": 40.406111,
          "longitude": 140.455556,
          "type": "waypoint"
        },
        {
          "name": "ORUMU",
          "latitude": 39.954444,
          "longitude": 140.588611,
          "type": "waypoint"
        },
        {
          "name": "VARSU",
          "latitude": 39.501111,
          "longitude": 140.720278,
          "type": "waypoint"
        },
        {
          "name": "VINAR",
          "latitude": 38.760556,
          "longitude": 140.931944,
          "type": "waypoint"
        },
        {
          "name": "METEL",
          "latitude": 38.557222,
          "longitude": 140.989167,
          "type": "waypoint"
        },
        {
          "name": "JUGEM",
          "latitude": 37.933611111111105,
          "longitude": 141.1627777777778,
          "type": "waypoint"
        }
      ]
    },
    {
      "name": "Y126",
      "description": "Route Y126 from NAKTU to KIKOL",
      "points": [
        {
          "name": "NAKTU",
          "latitude": 35.467222,
          "longitude": 137.463056,
          "type": "waypoint"
        },
        {
          "name": "TEBAS",
          "latitude": 35.263889,
          "longitude": 137.489167,
          "type": "waypoint"
        },
        {
          "name": "KIKOL",
          "latitude": 34.841111,
          "longitude": 137.543056,
          "type": "waypoint"
        }
      ]
    },
    {
      "name": "Y128",
      "description": "Route Y128 from AYANO to LAXEL",
      "points": [
        {
          "name": "AYANO",
          "latitude": 34.096111,
          "longitude": 136.393611,
          "type": "waypoint"
        },
        {
          "name": "LAXEL",
          "latitude": 32.092844444444445,
          "longitude": 135.15888055555556,
          "type": "waypoint"
        }
      ]
    },
    {
      "name": "Y13",
      "description": "Route Y13 from CHITOSE to GUJYO",
      "points": [
        {
          "name": "CHITOSE",
          "latitude": 42.7,
          "longitude": 141.686111,
          "type": "waypoint"
        },
        {
          "name": "SIRAO",
          "latitude": 41.966111,
          "longitude": 141.315556,
          "type": "waypoint"
        },
        {
          "name": "IDEMI",
          "latitude": 41.88814166666667,
          "longitude": 141.27599166666667,
          "type": "waypoint"
        },
        {
          "name": "TIKYU",
          "latitude": 41.684167,
          "longitude": 141.1725,
          "type": "waypoint"
        },
        {
          "name": "MEKAB",
          "latitude": 41.4575,
          "longitude": 141.060556,
          "type": "waypoint"
        },
        {
          "name": "OHMAR",
          "latitude": 41.309444,
          "longitude": 140.987778,
          "type": "waypoint"
        },
        {
          "name": "SMELT",
          "latitude": 40.895,
          "longitude": 140.781667,
          "type": "waypoint"
        },
        {
          "name": "AOMORI",
          "latitude": 40.738889,
          "longitude": 140.705278,
          "type": "waypoint"
        },
        {
          "name": "AKITA",
          "latitude": 39.711667,
          "longitude": 140.062222,
          "type": "waypoint"
        },
        {
          "name": "BENNY",
          "latitude": 39.028889,
          "longitude": 139.692222,
          "type": "waypoint"
        },
        {
          "name": "BASIN",
          "latitude": 38.121111,
          "longitude": 138.941944,
          "type": "waypoint"
        },
        {
          "name": "KROBE",
          "latitude": 36.553611,
          "longitude": 137.697778,
          "type": "waypoint"
        },
        {
          "name": "GOHEI",
          "latitude": 36.197778,
          "longitude": 137.357778,
          "type": "waypoint"
        },
        {
          "name": "GUJYO",
          "latitude": 35.364167,
          "longitude": 136.577222,
          "type": "waypoint"
        }
      ]
    },
    {
      "name": "Y130",
      "description": "Route Y130 from OLSIM to TOMAM",
      "points": [
        {
          "name": "OLSIM",
          "latitude": 43.547778,
          "longitude": 143.348611,
          "type": "waypoint"
        },
        {
          "name": "UGURO",
          "latitude": 43.337778,
          "longitude": 142.665556,
          "type": "waypoint"
        },
        {
          "name": "NUGNO",
          "latitude": 43.216389,
          "longitude": 142.278611,
          "type": "waypoint"
        },
        {
          "name": "TOMAM",
          "latitude": 43.13902777777778,
          "longitude": 142.03447222222223,
          "type": "waypoint"
        }
      ]
    },
    {
      "name": "Y131",
      "description": "Route Y131 from HINAI to AKITA",
      "points": [
        {
          "name": "HINAI",
          "latitude": 40.291667,
          "longitude": 140.638333,
          "type": "waypoint"
        },
        {
          "name": "AKITA",
          "latitude": 39.71156666666667,
          "longitude": 140.06230833333333,
          "type": "waypoint"
        }
      ]
    },
    {
      "name": "Y132",
      "description": "Route Y132 from NULKI to YUDOH",
      "points": [
        {
          "name": "NULKI",
          "latitude": 43.550556,
          "longitude": 143.887222,
          "type": "waypoint"
        },
        {
          "name": "LUXES",
          "latitude": 43.026111,
          "longitude": 143.816111,
          "type": "waypoint"
        },
        {
          "name": "YUDOH",
          "latitude": 42.501389,
          "longitude": 143.746389,
          "type": "waypoint"
        }
      ]
    },
    {
      "name": "Y133",
      "description": "Route Y133 from MARON to GOHEI",
      "points": [
        {
          "name": "MARON",
          "latitude": 37.777778,
          "longitude": 137.556111,
          "type": "waypoint"
        },
        {
          "name": "GOHEI",
          "latitude": 36.19765833333333,
          "longitude": 137.3579,
          "type": "waypoint"
        }
      ]
    },
    {
      "name": "Y134",
      "description": "Route Y134 from ENKAT to NODUK",
      "points": [
        {
          "name": "ENKAT",
          "latitude": 43.392222,
          "longitude": 144.34,
          "type": "waypoint"
        },
        {
          "name": "ADMIG",
          "latitude": 43.245833,
          "longitude": 143.655556,
          "type": "waypoint"
        },
        {
          "name": "NODUK",
          "latitude": 43.10153611111111,
          "longitude": 143.00123333333335,
          "type": "waypoint"
        }
      ]
    },
    {
      "name": "Y135",
      "description": "Route Y135 from AOMORI to SAMBO",
      "points": [
        {
          "name": "AOMORI",
          "latitude": 40.738889,
          "longitude": 140.705278,
          "type": "waypoint"
        },
        {
          "name": "SAMBO",
          "latitude": 40.187778,
          "longitude": 140.950278,
          "type": "waypoint"
        }
      ]
    },
    {
      "name": "Y137",
      "description": "Route Y137 from NONUT to MEKAB",
      "points": [
        {
          "name": "NONUT",
          "latitude": 41.851389,
          "longitude": 141.446667,
          "type": "waypoint"
        },
        {
          "name": "MEKAB",
          "latitude": 41.4575,
          "longitude": 141.060556,
          "type": "waypoint"
        }
      ]
    },
    {
      "name": "Y138",
      "description": "Route Y138 from NONUT to TIKYU",
      "points": [
        {
          "name": "NONUT",
          "latitude": 41.851389,
          "longitude": 141.446667,
          "type": "waypoint"
        },
        {
          "name": "TIKYU",
          "latitude": 41.684167,
          "longitude": 141.1725,
          "type": "waypoint"
        }
      ]
    },
    {
      "name": "Y139",
      "description": "Route Y139 from ASIBE to SIRAO",
      "points": [
        {
          "name": "ASIBE",
          "latitude": 43.451111,
          "longitude": 142.283611,
          "type": "waypoint"
        },
        {
          "name": "EMREG",
          "latitude": 43.220833,
          "longitude": 142.148889,
          "type": "waypoint"
        },
        {
          "name": "NAVER",
          "latitude": 42.128889,
          "longitude": 141.524722,
          "type": "waypoint"
        },
        {
          "name": "SIRAO",
          "latitude": 41.966111,
          "longitude": 141.315556,
          "type": "waypoint"
        }
      ]
    },
    {
      "name": "Y14",
      "description": "Route Y14 from OLDUS to NAKATANE",
      "points": [
        {
          "name": "OLDUS",
          "latitude": 43.451111,
          "longitude": 143.441389,
          "type": "waypoint"
        },
        {
          "name": "NODUK",
          "latitude": 43.101667,
          "longitude": 143.001111,
          "type": "waypoint"
        },
        {
          "name": "BOKSO",
          "latitude": 42.805278,
          "longitude": 142.465278,
          "type": "waypoint"
        },
        {
          "name": "MUKAWA",
          "latitude": 42.555,
          "longitude": 141.955556,
          "type": "waypoint"
        },
        {
          "name": "HAKODATE",
          "latitude": 41.774167,
          "longitude": 140.832222,
          "type": "waypoint"
        },
        {
          "name": "ARIKA",
          "latitude": 40.443611,
          "longitude": 139.927778,
          "type": "waypoint"
        },
        {
          "name": "NYUDO",
          "latitude": 40.050833,
          "longitude": 139.664167,
          "type": "waypoint"
        },
        {
          "name": "GOLDO",
          "latitude": 38.06579166666666,
          "longitude": 138.40985833333335,
          "type": "waypoint"
        },
        {
          "name": "TATAM",
          "latitude": 37.930556,
          "longitude": 138.103611,
          "type": "waypoint"
        },
        {
          "name": "HOTAL",
          "latitude": 36.987778,
          "longitude": 136.044167,
          "type": "waypoint"
        },
        {
          "name": "SAMON",
          "latitude": 36.242778,
          "longitude": 134.503333,
          "type": "waypoint"
        },
        {
          "name": "SUGNO",
          "latitude": 35.961667,
          "longitude": 133.939444,
          "type": "waypoint"
        },
        {
          "name": "MIHOU",
          "latitude": 35.531111,
          "longitude": 133.093889,
          "type": "waypoint"
        },
        {
          "name": "BESMU",
          "latitude": 34.8125,
          "longitude": 131.964444,
          "type": "waypoint"
        },
        {
          "name": "OLTUN",
          "latitude": 34.458056,
          "longitude": 131.420833,
          "type": "waypoint"
        },
        {
          "name": "STOUT",
          "latitude": 34.190833,
          "longitude": 131.016111,
          "type": "waypoint"
        },
        {
          "name": "FUKUOKA",
          "latitude": 33.676111,
          "longitude": 130.389722,
          "type": "waypoint"
        },
        {
          "name": "OSTEP",
          "latitude": 33.142222,
          "longitude": 130.442222,
          "type": "waypoint"
        },
        {
          "name": "OMUTA",
          "latitude": 33.05894444444444,
          "longitude": 130.45039166666666,
          "type": "waypoint"
        },
        {
          "name": "TAIME",
          "latitude": 32.863056,
          "longitude": 130.471111,
          "type": "waypoint"
        },
        {
          "name": "FUGEN",
          "latitude": 32.655278,
          "longitude": 130.490278,
          "type": "waypoint"
        },
        {
          "name": "HINAG",
          "latitude": 32.395,
          "longitude": 130.515,
          "type": "waypoint"
        },
        {
          "name": "SASIK",
          "latitude": 32.299722,
          "longitude": 130.521111,
          "type": "waypoint"
        },
        {
          "name": "SAPIS",
          "latitude": 32.1675,
          "longitude": 130.5375,
          "type": "waypoint"
        },
        {
          "name": "KAGOSHIMA",
          "latitude": 31.697222,
          "longitude": 130.583056,
          "type": "waypoint"
        },
        {
          "name": "ELPAG",
          "latitude": 31.548889,
          "longitude": 130.638889,
          "type": "waypoint"
        },
        {
          "name": "KINKO",
          "latitude": 31.332778,
          "longitude": 130.72,
          "type": "waypoint"
        },
        {
          "name": "TOZAK",
          "latitude": 31.109167,
          "longitude": 130.803611,
          "type": "waypoint"
        },
        {
          "name": "ISMAD",
          "latitude": 30.915833,
          "longitude": 130.875556,
          "type": "waypoint"
        },
        {
          "name": "KAGYA",
          "latitude": 30.793056,
          "longitude": 130.920833,
          "type": "waypoint"
        },
        {
          "name": "NAKATANE",
          "latitude": 30.60215555555556,
          "longitude": 130.9915333333333,
          "type": "waypoint"
        }
      ]
    },
    {
      "name": "Y141",
      "description": "Route Y141 from SAMON to MARCO",
      "points": [
        {
          "name": "SAMON",
          "latitude": 36.242778,
          "longitude": 134.503333,
          "type": "waypoint"
        },
        {
          "name": "BIHOK",
          "latitude": 34.893611,
          "longitude": 133.013889,
          "type": "waypoint"
        },
        {
          "name": "OYSTR",
          "latitude": 34.330556,
          "longitude": 132.412222,
          "type": "waypoint"
        },
        {
          "name": "MARCO",
          "latitude": 34.079444,
          "longitude": 132.147222,
          "type": "waypoint"
        }
      ]
    },
    {
      "name": "Y142",
      "description": "Route Y142 from NIIGATA to SAMON",
      "points": [
        {
          "name": "NIIGATA",
          "latitude": 37.958333,
          "longitude": 139.115,
          "type": "waypoint"
        },
        {
          "name": "BEGSA",
          "latitude": 37.710278,
          "longitude": 138.403889,
          "type": "waypoint"
        },
        {
          "name": "NESKO",
          "latitude": 37.099444,
          "longitude": 136.720833,
          "type": "waypoint"
        },
        {
          "name": "SAMON",
          "latitude": 36.242778,
          "longitude": 134.503333,
          "type": "waypoint"
        }
      ]
    },
    {
      "name": "Y143",
      "description": "Route Y143 from SAKYU to SAMBA",
      "points": [
        {
          "name": "SAKYU",
          "latitude": 35.916944,
          "longitude": 134.518056,
          "type": "waypoint"
        },
        {
          "name": "ORUDA",
          "latitude": 35.525833,
          "longitude": 133.358056,
          "type": "waypoint"
        },
        {
          "name": "ADLEB",
          "latitude": 35.497778,
          "longitude": 133.276389,
          "type": "waypoint"
        },
        {
          "name": "DULOK",
          "latitude": 35.453889,
          "longitude": 133.149722,
          "type": "waypoint"
        },
        {
          "name": "LATOR",
          "latitude": 35.323056,
          "longitude": 132.774167,
          "type": "waypoint"
        },
        {
          "name": "VIBEL",
          "latitude": 35.209444,
          "longitude": 132.451944,
          "type": "waypoint"
        },
        {
          "name": "OSPEL",
          "latitude": 35.151111,
          "longitude": 132.256667,
          "type": "waypoint"
        },
        {
          "name": "SAMBA",
          "latitude": 35.090556,
          "longitude": 132.056667,
          "type": "waypoint"
        }
      ]
    },
    {
      "name": "Y144",
      "description": "Route Y144 from HAKODATE to MAGGY",
      "points": [
        {
          "name": "HAKODATE",
          "latitude": 41.774167,
          "longitude": 140.832222,
          "type": "waypoint"
        },
        {
          "name": "IWASE",
          "latitude": 40.406111,
          "longitude": 140.455556,
          "type": "waypoint"
        },
        {
          "name": "MAGGY",
          "latitude": 39.915725,
          "longitude": 140.3241111111111,
          "type": "waypoint"
        }
      ]
    },
    {
      "name": "Y145",
      "description": "Route Y145 from KAGOSHIMA to ONSKE",
      "points": [
        {
          "name": "KAGOSHIMA",
          "latitude": 31.697222,
          "longitude": 130.583056,
          "type": "waypoint"
        },
        {
          "name": "AMMON",
          "latitude": 31.178611,
          "longitude": 130.614444,
          "type": "waypoint"
        },
        {
          "name": "MABNO",
          "latitude": 30.750556,
          "longitude": 130.640278,
          "type": "waypoint"
        },
        {
          "name": "ONSKE",
          "latitude": 30.623036111111112,
          "longitude": 130.64807222222223,
          "type": "waypoint"
        }
      ]
    },
    {
      "name": "Y146",
      "description": "Route Y146 from DALBI to HIBAR",
      "points": [
        {
          "name": "DALBI",
          "latitude": 42.080278,
          "longitude": 140.514444,
          "type": "waypoint"
        },
        {
          "name": "TEPIS",
          "latitude": 41.436389,
          "longitude": 140.671944,
          "type": "waypoint"
        },
        {
          "name": "HIBAR",
          "latitude": 41.11063888888889,
          "longitude": 140.75044444444444,
          "type": "waypoint"
        }
      ]
    },
    {
      "name": "Y15",
      "description": "Route Y15 from OWLET to TENRU",
      "points": [
        {
          "name": "OWLET",
          "latitude": 37.773056,
          "longitude": 140.463056,
          "type": "waypoint"
        },
        {
          "name": "NIRAX",
          "latitude": 37.727222,
          "longitude": 140.373889,
          "type": "waypoint"
        },
        {
          "name": "SHIRO",
          "latitude": 37.613333,
          "longitude": 140.153056,
          "type": "waypoint"
        },
        {
          "name": "INAWA",
          "latitude": 37.538056,
          "longitude": 140.008333,
          "type": "waypoint"
        },
        {
          "name": "HEIKE",
          "latitude": 37.400278,
          "longitude": 139.744167,
          "type": "waypoint"
        },
        {
          "name": "DANDY",
          "latitude": 37.173889,
          "longitude": 139.511667,
          "type": "waypoint"
        },
        {
          "name": "TADMI",
          "latitude": 36.817222,
          "longitude": 139.149167,
          "type": "waypoint"
        },
        {
          "name": "MYOGI",
          "latitude": 36.207778,
          "longitude": 138.536111,
          "type": "waypoint"
        },
        {
          "name": "TENRU",
          "latitude": 35.66959166666666,
          "longitude": 138.00693611111112,
          "type": "waypoint"
        }
      ]
    },
    {
      "name": "Y151",
      "description": "Route Y151 from MYOGI to CHAUS",
      "points": [
        {
          "name": "MYOGI",
          "latitude": 36.207778,
          "longitude": 138.536111,
          "type": "waypoint"
        },
        {
          "name": "AMIDA",
          "latitude": 35.871667,
          "longitude": 138.317778,
          "type": "waypoint"
        },
        {
          "name": "CHAUS",
          "latitude": 35.442569444444445,
          "longitude": 138.041475,
          "type": "waypoint"
        }
      ]
    },
    {
      "name": "Y153",
      "description": "Route Y153 from HANAMAKI to HEIKE",
      "points": [
        {
          "name": "HANAMAKI",
          "latitude": 39.433333,
          "longitude": 141.133611,
          "type": "waypoint"
        },
        {
          "name": "SIOMO",
          "latitude": 39.133889,
          "longitude": 140.908333,
          "type": "waypoint"
        },
        {
          "name": "RUNID",
          "latitude": 39.002778,
          "longitude": 140.810556,
          "type": "waypoint"
        },
        {
          "name": "YAMAGATA",
          "latitude": 38.388611,
          "longitude": 140.358056,
          "type": "waypoint"
        },
        {
          "name": "HEIKE",
          "latitude": 37.400277777777774,
          "longitude": 139.74416666666664,
          "type": "waypoint"
        }
      ]
    },
    {
      "name": "Y157",
      "description": "Route Y157 from IBELU to SHIRO",
      "points": [
        {
          "name": "IBELU",
          "latitude": 37.985,
          "longitude": 140.277222,
          "type": "waypoint"
        },
        {
          "name": "SHIRO",
          "latitude": 37.613333,
          "longitude": 140.153056,
          "type": "waypoint"
        }
      ]
    },
    {
      "name": "Y16",
      "description": "Route Y16 from INUBO to SAPRA",
      "points": [
        {
          "name": "INUBO",
          "latitude": 35.726389,
          "longitude": 140.799444,
          "type": "waypoint"
        },
        {
          "name": "TETRA",
          "latitude": 35.773889,
          "longitude": 140.265556,
          "type": "waypoint"
        },
        {
          "name": "ENPAR",
          "latitude": 35.868056,
          "longitude": 139.831667,
          "type": "waypoint"
        },
        {
          "name": "NIXIS",
          "latitude": 35.918056,
          "longitude": 139.5975,
          "type": "waypoint"
        },
        {
          "name": "TEPEX",
          "latitude": 36.004167,
          "longitude": 138.882778,
          "type": "waypoint"
        },
        {
          "name": "ISDOS",
          "latitude": 36.0075,
          "longitude": 138.563889,
          "type": "waypoint"
        },
        {
          "name": "NOGUP",
          "latitude": 36.010278,
          "longitude": 138.204444,
          "type": "waypoint"
        },
        {
          "name": "IGPOS",
          "latitude": 36.0125,
          "longitude": 137.673056,
          "type": "waypoint"
        },
        {
          "name": "BIDIK",
          "latitude": 36.012778,
          "longitude": 137.486111,
          "type": "waypoint"
        },
        {
          "name": "ADGOM",
          "latitude": 36.008056,
          "longitude": 136.386944,
          "type": "waypoint"
        },
        {
          "name": "MADUL",
          "latitude": 35.983056,
          "longitude": 134.770278,
          "type": "waypoint"
        },
        {
          "name": "SUGNO",
          "latitude": 35.961667,
          "longitude": 133.939444,
          "type": "waypoint"
        },
        {
          "name": "SAPRA",
          "latitude": 35.82384166666667,
          "longitude": 130.72367500000001,
          "type": "waypoint"
        }
      ]
    },
    {
      "name": "Y18",
      "description": "Route Y18 from BEKLA to MIHOU",
      "points": [
        {
          "name": "BEKLA",
          "latitude": 35.833056,
          "longitude": 139.169444,
          "type": "waypoint"
        },
        {
          "name": "OLBER",
          "latitude": 35.807778,
          "longitude": 138.6625,
          "type": "waypoint"
        },
        {
          "name": "AGSEB",
          "latitude": 35.794722,
          "longitude": 138.419167,
          "type": "waypoint"
        },
        {
          "name": "PIGAP",
          "latitude": 35.789167,
          "longitude": 138.316944,
          "type": "waypoint"
        },
        {
          "name": "DOLNU",
          "latitude": 35.767778,
          "longitude": 137.935278,
          "type": "waypoint"
        },
        {
          "name": "VERUG",
          "latitude": 35.756667,
          "longitude": 137.750278,
          "type": "waypoint"
        },
        {
          "name": "ELKOT",
          "latitude": 35.736944,
          "longitude": 137.486944,
          "type": "waypoint"
        },
        {
          "name": "OVMAX",
          "latitude": 35.501944,
          "longitude": 135.899722,
          "type": "waypoint"
        },
        {
          "name": "MIYAZU",
          "latitude": 35.480556,
          "longitude": 135.136944,
          "type": "waypoint"
        },
        {
          "name": "LEPGU",
          "latitude": 35.508056,
          "longitude": 134.1575,
          "type": "waypoint"
        },
        {
          "name": "RAKDA",
          "latitude": 35.519444,
          "longitude": 133.64,
          "type": "waypoint"
        },
        {
          "name": "ORUDA",
          "latitude": 35.525833,
          "longitude": 133.358056,
          "type": "waypoint"
        },
        {
          "name": "MIHOU",
          "latitude": 35.53111666666666,
          "longitude": 133.0939138888889,
          "type": "waypoint"
        }
      ]
    },
    {
      "name": "Y182",
      "description": "Route Y182 from PIGAP to BIDIK",
      "points": [
        {
          "name": "PIGAP",
          "latitude": 35.789167,
          "longitude": 138.316944,
          "type": "waypoint"
        },
        {
          "name": "IDMEN",
          "latitude": 35.861111,
          "longitude": 138.0525,
          "type": "waypoint"
        },
        {
          "name": "OGISO",
          "latitude": 35.940833,
          "longitude": 137.756111,
          "type": "waypoint"
        },
        {
          "name": "AKNOM",
          "latitude": 35.971944,
          "longitude": 137.639444,
          "type": "waypoint"
        },
        {
          "name": "BIDIK",
          "latitude": 36.012778,
          "longitude": 137.486111,
          "type": "waypoint"
        }
      ]
    },
    {
      "name": "Y186",
      "description": "Route Y186 from MIYAZU to TOTTORI",
      "points": [
        {
          "name": "MIYAZU",
          "latitude": 35.480556,
          "longitude": 135.136944,
          "type": "waypoint"
        },
        {
          "name": "KANNA",
          "latitude": 35.503056,
          "longitude": 134.689444,
          "type": "waypoint"
        },
        {
          "name": "TOTTORI",
          "latitude": 35.527222,
          "longitude": 134.165,
          "type": "waypoint"
        }
      ]
    },
    {
      "name": "Y188",
      "description": "Route Y188 from RAKDA to TOZAN",
      "points": [
        {
          "name": "RAKDA",
          "latitude": 35.519444,
          "longitude": 133.64,
          "type": "waypoint"
        },
        {
          "name": "TOZAN",
          "latitude": 35.27095555555555,
          "longitude": 134.48449166666666,
          "type": "waypoint"
        }
      ]
    },
    {
      "name": "Y19",
      "description": "Route Y19 from AOMORI to GOLDO",
      "points": [
        {
          "name": "AOMORI",
          "latitude": 40.738889,
          "longitude": 140.705278,
          "type": "waypoint"
        },
        {
          "name": "NAMMY",
          "latitude": 39.81,
          "longitude": 139.877222,
          "type": "waypoint"
        },
        {
          "name": "GOLDO",
          "latitude": 38.06579166666666,
          "longitude": 138.40985833333335,
          "type": "waypoint"
        }
      ]
    },
    {
      "name": "Y20",
      "description": "Route Y20 from GUSRO to IKI",
      "points": [
        {
          "name": "GUSRO",
          "latitude": 35.6625,
          "longitude": 139.136944,
          "type": "waypoint"
        },
        {
          "name": "LEBOS",
          "latitude": 35.641111,
          "longitude": 138.669722,
          "type": "waypoint"
        },
        {
          "name": "MADEG",
          "latitude": 35.616111,
          "longitude": 138.199167,
          "type": "waypoint"
        },
        {
          "name": "SUGAL",
          "latitude": 35.593056,
          "longitude": 137.794722,
          "type": "waypoint"
        },
        {
          "name": "TOLUM",
          "latitude": 35.573333,
          "longitude": 137.528889,
          "type": "waypoint"
        },
        {
          "name": "ENDAG",
          "latitude": 35.513056,
          "longitude": 137.253056,
          "type": "waypoint"
        },
        {
          "name": "MORVA",
          "latitude": 35.327222,
          "longitude": 136.426111,
          "type": "waypoint"
        },
        {
          "name": "ARASI",
          "latitude": 35.181944,
          "longitude": 135.798333,
          "type": "waypoint"
        },
        {
          "name": "GINJI",
          "latitude": 35.094444,
          "longitude": 135.280833,
          "type": "waypoint"
        },
        {
          "name": "WAKIT",
          "latitude": 35.03273611111111,
          "longitude": 134.92555277777777,
          "type": "waypoint"
        },
        {
          "name": "KAMMY",
          "latitude": 34.991111,
          "longitude": 134.688611,
          "type": "waypoint"
        },
        {
          "name": "CLOVE",
          "latitude": 34.824167,
          "longitude": 133.853611,
          "type": "waypoint"
        },
        {
          "name": "BASIL",
          "latitude": 34.515556,
          "longitude": 132.428056,
          "type": "waypoint"
        },
        {
          "name": "SUNPI",
          "latitude": 34.459444,
          "longitude": 132.178889,
          "type": "waypoint"
        },
        {
          "name": "RUVEK",
          "latitude": 34.335278,
          "longitude": 131.634444,
          "type": "waypoint"
        },
        {
          "name": "STOUT",
          "latitude": 34.190833,
          "longitude": 131.016111,
          "type": "waypoint"
        },
        {
          "name": "KIRIN",
          "latitude": 34.121667,
          "longitude": 130.821944,
          "type": "waypoint"
        },
        {
          "name": "EBISU",
          "latitude": 34.038889,
          "longitude": 130.591111,
          "type": "waypoint"
        },
        {
          "name": "IKI",
          "latitude": 33.7475,
          "longitude": 129.776944,
          "type": "waypoint"
        }
      ]
    },
    {
      "name": "Y201",
      "description": "Route Y201 from WAKIT to TRACY",
      "points": [
        {
          "name": "WAKIT",
          "latitude": 35.032778,
          "longitude": 134.925556,
          "type": "waypoint"
        },
        {
          "name": "TRACY",
          "latitude": 34.663611,
          "longitude": 134.763333,
          "type": "waypoint"
        }
      ]
    },
    {
      "name": "Y202",
      "description": "Route Y202 from KAMMY to AMURO",
      "points": [
        {
          "name": "KAMMY",
          "latitude": 34.991111,
          "longitude": 134.688611,
          "type": "waypoint"
        },
        {
          "name": "LALAH",
          "latitude": 34.927222,
          "longitude": 134.394444,
          "type": "waypoint"
        },
        {
          "name": "BRITE",
          "latitude": 34.881389,
          "longitude": 134.186111,
          "type": "waypoint"
        },
        {
          "name": "AMURO",
          "latitude": 34.691944,
          "longitude": 133.340833,
          "type": "waypoint"
        }
      ]
    },
    {
      "name": "Y203",
      "description": "Route Y203 from WAKIT to WIMPY",
      "points": [
        {
          "name": "WAKIT",
          "latitude": 35.032778,
          "longitude": 134.925556,
          "type": "waypoint"
        },
        {
          "name": "WIMPY",
          "latitude": 34.520833,
          "longitude": 134.485833,
          "type": "waypoint"
        }
      ]
    },
    {
      "name": "Y204",
      "description": "Route Y204 from KAMMY to OHGIE",
      "points": [
        {
          "name": "KAMMY",
          "latitude": 34.991111,
          "longitude": 134.688611,
          "type": "waypoint"
        },
        {
          "name": "UKELI",
          "latitude": 34.469444,
          "longitude": 132.741111,
          "type": "waypoint"
        },
        {
          "name": "MINTO",
          "latitude": 34.064722,
          "longitude": 131.318056,
          "type": "waypoint"
        },
        {
          "name": "IBIPI",
          "latitude": 33.950556,
          "longitude": 131.0425,
          "type": "waypoint"
        },
        {
          "name": "FUKUOKA",
          "latitude": 33.676111,
          "longitude": 130.389722,
          "type": "waypoint"
        },
        {
          "name": "OHGIE",
          "latitude": 33.331389,
          "longitude": 130.178333,
          "type": "waypoint"
        }
      ]
    },
    {
      "name": "Y205",
      "description": "Route Y205 from WAKIT to KIBI",
      "points": [
        {
          "name": "WAKIT",
          "latitude": 35.032778,
          "longitude": 134.925556,
          "type": "waypoint"
        },
        {
          "name": "TRIPY",
          "latitude": 34.96700277777778,
          "longitude": 134.66760277777777,
          "type": "waypoint"
        },
        {
          "name": "MIMMY",
          "latitude": 34.9325,
          "longitude": 134.533611,
          "type": "waypoint"
        },
        {
          "name": "SIMAG",
          "latitude": 34.863056,
          "longitude": 134.265278,
          "type": "waypoint"
        },
        {
          "name": "BENES",
          "latitude": 34.834444,
          "longitude": 134.155278,
          "type": "waypoint"
        },
        {
          "name": "KIBI",
          "latitude": 34.750278,
          "longitude": 133.835,
          "type": "waypoint"
        }
      ]
    },
    {
      "name": "Y206",
      "description": "Route Y206 from MIHOU to KALEK",
      "points": [
        {
          "name": "MIHOU",
          "latitude": 35.531111,
          "longitude": 133.093889,
          "type": "waypoint"
        },
        {
          "name": "YAKMO",
          "latitude": 35.503333,
          "longitude": 132.779722,
          "type": "waypoint"
        },
        {
          "name": "OPERA",
          "latitude": 35.497222,
          "longitude": 132.710278,
          "type": "waypoint"
        },
        {
          "name": "ENRUN",
          "latitude": 35.46,
          "longitude": 132.304722,
          "type": "waypoint"
        },
        {
          "name": "KALEK",
          "latitude": 35.208889,
          "longitude": 129.884722,
          "type": "waypoint"
        }
      ]
    },
    {
      "name": "Y207",
      "description": "Route Y207 from IPLES to ARASI",
      "points": [
        {
          "name": "IPLES",
          "latitude": 35.407778,
          "longitude": 137.562778,
          "type": "waypoint"
        },
        {
          "name": "IGREN",
          "latitude": 35.357222,
          "longitude": 137.136667,
          "type": "waypoint"
        },
        {
          "name": "APILU",
          "latitude": 35.298333,
          "longitude": 136.656111,
          "type": "waypoint"
        },
        {
          "name": "IGOTO",
          "latitude": 35.259444,
          "longitude": 136.347778,
          "type": "waypoint"
        },
        {
          "name": "HIKNE",
          "latitude": 35.2375,
          "longitude": 136.176944,
          "type": "waypoint"
        },
        {
          "name": "KRAMA",
          "latitude": 35.218889,
          "longitude": 136.049167,
          "type": "waypoint"
        },
        {
          "name": "ARASI",
          "latitude": 35.18206111111111,
          "longitude": 135.79838333333333,
          "type": "waypoint"
        }
      ]
    },
    {
      "name": "Y208",
      "description": "Route Y208 from INVOK to LUKRA",
      "points": [
        {
          "name": "INVOK",
          "latitude": 34.788611,
          "longitude": 129.323056,
          "type": "waypoint"
        },
        {
          "name": "BEETL",
          "latitude": 34.2625,
          "longitude": 129.829167,
          "type": "waypoint"
        },
        {
          "name": "KOIMA",
          "latitude": 33.315278,
          "longitude": 130.166944,
          "type": "waypoint"
        },
        {
          "name": "SASIK",
          "latitude": 32.299722,
          "longitude": 130.521111,
          "type": "waypoint"
        },
        {
          "name": "LUKRA",
          "latitude": 30.465433333333333,
          "longitude": 131.094875,
          "type": "waypoint"
        }
      ]
    },
    {
      "name": "Y209",
      "description": "Route Y209 from BESNA to IKI",
      "points": [
        {
          "name": "BESNA",
          "latitude": 34.621667,
          "longitude": 129.130833,
          "type": "waypoint"
        },
        {
          "name": "PAVGA",
          "latitude": 34.053056,
          "longitude": 129.552778,
          "type": "waypoint"
        },
        {
          "name": "FRAIZ",
          "latitude": 33.963611,
          "longitude": 129.618611,
          "type": "waypoint"
        },
        {
          "name": "SARUP",
          "latitude": 33.835556,
          "longitude": 129.7125,
          "type": "waypoint"
        },
        {
          "name": "IKI",
          "latitude": 33.7475,
          "longitude": 129.776944,
          "type": "waypoint"
        }
      ]
    },
    {
      "name": "Y21",
      "description": "Route Y21 from AKSEL to BILLY",
      "points": [
        {
          "name": "AKSEL",
          "latitude": 34.677778,
          "longitude": 139.8575,
          "type": "waypoint"
        },
        {
          "name": "RUNSO",
          "latitude": 34.488056,
          "longitude": 139.718056,
          "type": "waypoint"
        },
        {
          "name": "SELNO",
          "latitude": 34.284444,
          "longitude": 139.124722,
          "type": "waypoint"
        },
        {
          "name": "PAMVI",
          "latitude": 34.206667,
          "longitude": 138.946667,
          "type": "waypoint"
        },
        {
          "name": "MENUR",
          "latitude": 33.911389,
          "longitude": 138.278889,
          "type": "waypoint"
        },
        {
          "name": "BILLY",
          "latitude": 33.611111,
          "longitude": 137.619722,
          "type": "waypoint"
        }
      ]
    },
    {
      "name": "Y22",
      "description": "Route Y22 from TEPEX to MIHOU",
      "points": [
        {
          "name": "TEPEX",
          "latitude": 36.004167,
          "longitude": 138.882778,
          "type": "waypoint"
        },
        {
          "name": "OGISO",
          "latitude": 35.940833,
          "longitude": 137.756111,
          "type": "waypoint"
        },
        {
          "name": "TAREB",
          "latitude": 35.735,
          "longitude": 135.155833,
          "type": "waypoint"
        },
        {
          "name": "MIHOU",
          "latitude": 35.53111666666666,
          "longitude": 133.0939138888889,
          "type": "waypoint"
        }
      ]
    },
    {
      "name": "Y23",
      "description": "Route Y23 from ARTIC to FUKUE",
      "points": [
        {
          "name": "ARTIC",
          "latitude": 34.715556,
          "longitude": 138.804444,
          "type": "waypoint"
        },
        {
          "name": "BOKJO",
          "latitude": 34.542222,
          "longitude": 138.385,
          "type": "waypoint"
        },
        {
          "name": "ENSYU",
          "latitude": 34.543333,
          "longitude": 138.034167,
          "type": "waypoint"
        },
        {
          "name": "BOGON",
          "latitude": 34.5425,
          "longitude": 137.595556,
          "type": "waypoint"
        },
        {
          "name": "FLUTE",
          "latitude": 34.538611,
          "longitude": 136.963611,
          "type": "waypoint"
        },
        {
          "name": "ELMIR",
          "latitude": 34.362778,
          "longitude": 136.123333,
          "type": "waypoint"
        },
        {
          "name": "ANSUM",
          "latitude": 34.116389,
          "longitude": 134.995278,
          "type": "waypoint"
        },
        {
          "name": "UKAKO",
          "latitude": 33.947222,
          "longitude": 134.251389,
          "type": "waypoint"
        },
        {
          "name": "EKUNU",
          "latitude": 33.804444,
          "longitude": 133.639722,
          "type": "waypoint"
        },
        {
          "name": "SPIDE",
          "latitude": 33.644444,
          "longitude": 132.971667,
          "type": "waypoint"
        },
        {
          "name": "BEGOP",
          "latitude": 33.438333,
          "longitude": 132.348889,
          "type": "waypoint"
        },
        {
          "name": "OOITA",
          "latitude": 33.220278,
          "longitude": 131.703333,
          "type": "waypoint"
        },
        {
          "name": "KASTE",
          "latitude": 32.843333,
          "longitude": 129.689444,
          "type": "waypoint"
        },
        {
          "name": "FUKUE",
          "latitude": 32.66860555555555,
          "longitude": 128.8267361111111,
          "type": "waypoint"
        }
      ]
    },
    {
      "name": "Y231",
      "description": "Route Y231 from MIRIO to SPIDE",
      "points": [
        {
          "name": "MIRIO",
          "latitude": 34.001667,
          "longitude": 134.709167,
          "type": "waypoint"
        },
        {
          "name": "BECKY",
          "latitude": 33.919167,
          "longitude": 134.508611,
          "type": "waypoint"
        },
        {
          "name": "JANGO",
          "latitude": 33.809444,
          "longitude": 134.243056,
          "type": "waypoint"
        },
        {
          "name": "ROSIE",
          "latitude": 33.713333,
          "longitude": 133.490556,
          "type": "waypoint"
        },
        {
          "name": "SPIDE",
          "latitude": 33.644502777777774,
          "longitude": 132.97166666666666,
          "type": "waypoint"
        }
      ]
    },
    {
      "name": "Y232",
      "description": "Route Y232 from AWAJI to SIROK",
      "points": [
        {
          "name": "AWAJI",
          "latitude": 34.270278,
          "longitude": 134.713056,
          "type": "waypoint"
        },
        {
          "name": "SUNNY",
          "latitude": 33.920278,
          "longitude": 134.213333,
          "type": "waypoint"
        },
        {
          "name": "KOCHI",
          "latitude": 33.541667,
          "longitude": 133.680278,
          "type": "waypoint"
        },
        {
          "name": "SATKI",
          "latitude": 33.1225,
          "longitude": 133.224722,
          "type": "waypoint"
        },
        {
          "name": "AGRUM",
          "latitude": 32.845278,
          "longitude": 132.927222,
          "type": "waypoint"
        },
        {
          "name": "SIROK",
          "latitude": 32.208889,
          "longitude": 132.252778,
          "type": "waypoint"
        }
      ]
    },
    {
      "name": "Y233",
      "description": "Route Y233 from UTIBO to OSHIMA",
      "points": [
        {
          "name": "UTIBO",
          "latitude": 34.946389,
          "longitude": 139.895556,
          "type": "waypoint"
        },
        {
          "name": "OSHIMA",
          "latitude": 34.712222,
          "longitude": 139.413889,
          "type": "waypoint"
        }
      ]
    },
    {
      "name": "Y235",
      "description": "Route Y235 from FLUTE to YANKS",
      "points": [
        {
          "name": "FLUTE",
          "latitude": 34.538611,
          "longitude": 136.963611,
          "type": "waypoint"
        },
        {
          "name": "LEKUT",
          "latitude": 34.405556,
          "longitude": 136.115278,
          "type": "waypoint"
        },
        {
          "name": "HALKA",
          "latitude": 34.218333,
          "longitude": 134.983889,
          "type": "waypoint"
        },
        {
          "name": "MIGEM",
          "latitude": 34.200833,
          "longitude": 134.885556,
          "type": "waypoint"
        },
        {
          "name": "YANKS",
          "latitude": 34.130278,
          "longitude": 134.490278,
          "type": "waypoint"
        }
      ]
    },
    {
      "name": "Y24",
      "description": "Route Y24 from KUSHIMOTO to KOSHI",
      "points": [
        {
          "name": "KUSHIMOTO",
          "latitude": 33.447778,
          "longitude": 135.794444,
          "type": "waypoint"
        },
        {
          "name": "ALBAT",
          "latitude": 33.364444,
          "longitude": 135.441389,
          "type": "waypoint"
        },
        {
          "name": "HALON",
          "latitude": 33.248889,
          "longitude": 134.997222,
          "type": "waypoint"
        },
        {
          "name": "TURFY",
          "latitude": 33.1625,
          "longitude": 134.642222,
          "type": "waypoint"
        },
        {
          "name": "JAKAL",
          "latitude": 33.061944,
          "longitude": 134.234167,
          "type": "waypoint"
        },
        {
          "name": "GREEN",
          "latitude": 32.898611,
          "longitude": 133.566389,
          "type": "waypoint"
        },
        {
          "name": "SHIMIZU",
          "latitude": 32.755833,
          "longitude": 132.996667,
          "type": "waypoint"
        },
        {
          "name": "KOSHI",
          "latitude": 31.28850277777778,
          "longitude": 129.96471388888887,
          "type": "waypoint"
        }
      ]
    },
    {
      "name": "Y242",
      "description": "Route Y242 from TURFY to PANCH",
      "points": [
        {
          "name": "TURFY",
          "latitude": 33.1625,
          "longitude": 134.642222,
          "type": "waypoint"
        },
        {
          "name": "PANCH",
          "latitude": 33.189167,
          "longitude": 134.088333,
          "type": "waypoint"
        }
      ]
    },
    {
      "name": "Y244",
      "description": "Route Y244 from RUPAP to GREEN",
      "points": [
        {
          "name": "RUPAP",
          "latitude": 33.405278,
          "longitude": 134.9975,
          "type": "waypoint"
        },
        {
          "name": "EMTOT",
          "latitude": 33.314444,
          "longitude": 134.658611,
          "type": "waypoint"
        },
        {
          "name": "ISLUB",
          "latitude": 33.1775,
          "longitude": 134.154444,
          "type": "waypoint"
        },
        {
          "name": "GREEN",
          "latitude": 32.898611,
          "longitude": 133.566389,
          "type": "waypoint"
        }
      ]
    },
    {
      "name": "Y25",
      "description": "Route Y25 from IKI to AMAMI",
      "points": [
        {
          "name": "IKI",
          "latitude": 33.7475,
          "longitude": 129.776944,
          "type": "waypoint"
        },
        {
          "name": "ISKUP",
          "latitude": 33.479722,
          "longitude": 129.846389,
          "type": "waypoint"
        },
        {
          "name": "GUSPA",
          "latitude": 33.182778,
          "longitude": 129.922778,
          "type": "waypoint"
        },
        {
          "name": "GOKYO",
          "latitude": 32.604722,
          "longitude": 130.070278,
          "type": "waypoint"
        },
        {
          "name": "LELAD",
          "latitude": 32.021389,
          "longitude": 130.023056,
          "type": "waypoint"
        },
        {
          "name": "KOSHI",
          "latitude": 31.288611,
          "longitude": 129.964722,
          "type": "waypoint"
        },
        {
          "name": "MOMPA",
          "latitude": 30.844722,
          "longitude": 129.915833,
          "type": "waypoint"
        },
        {
          "name": "ATNOX",
          "latitude": 30.343333,
          "longitude": 129.861111,
          "type": "waypoint"
        },
        {
          "name": "BOMAP",
          "latitude": 30.003611,
          "longitude": 129.824444,
          "type": "waypoint"
        },
        {
          "name": "IGREK",
          "latitude": 29.354000000000003,
          "longitude": 129.72338333333335,
          "type": "waypoint"
        },
        {
          "name": "KANAH",
          "latitude": 29.134444,
          "longitude": 129.689444,
          "type": "waypoint"
        },
        {
          "name": "AMAMI",
          "latitude": 28.443669444444446,
          "longitude": 129.58406666666667,
          "type": "waypoint"
        }
      ]
    },
    {
      "name": "Y251",
      "description": "Route Y251 from TSUSHIMA to NAGASAKI",
      "points": [
        {
          "name": "TSUSHIMA",
          "latitude": 34.281389,
          "longitude": 129.336944,
          "type": "waypoint"
        },
        {
          "name": "AGATA",
          "latitude": 34.173056,
          "longitude": 129.463333,
          "type": "waypoint"
        },
        {
          "name": "OMDUK",
          "latitude": 34.101944,
          "longitude": 129.515833,
          "type": "waypoint"
        },
        {
          "name": "ISTAK",
          "latitude": 33.984722,
          "longitude": 129.6025,
          "type": "waypoint"
        },
        {
          "name": "IKI",
          "latitude": 33.7475,
          "longitude": 129.776944,
          "type": "waypoint"
        },
        {
          "name": "AKNAG",
          "latitude": 33.338056,
          "longitude": 129.845833,
          "type": "waypoint"
        },
        {
          "name": "SALID",
          "latitude": 33.021111,
          "longitude": 129.898611,
          "type": "waypoint"
        },
        {
          "name": "NAGASAKI",
          "latitude": 32.905278,
          "longitude": 129.918056,
          "type": "waypoint"
        }
      ]
    },
    {
      "name": "Y253",
      "description": "Route Y253 from IKI to FUKUE",
      "points": [
        {
          "name": "IKI",
          "latitude": 33.7475,
          "longitude": 129.776944,
          "type": "waypoint"
        },
        {
          "name": "ATSAG",
          "latitude": 33.664775,
          "longitude": 129.70291666666665,
          "type": "waypoint"
        },
        {
          "name": "EKIRI",
          "latitude": 33.548611,
          "longitude": 129.599444,
          "type": "waypoint"
        },
        {
          "name": "OLVIN",
          "latitude": 33.481667,
          "longitude": 129.539722,
          "type": "waypoint"
        },
        {
          "name": "FUKUE",
          "latitude": 32.668611,
          "longitude": 128.826667,
          "type": "waypoint"
        }
      ]
    },
    {
      "name": "Y255",
      "description": "Route Y255 from OMDUK to AKNAG",
      "points": [
        {
          "name": "OMDUK",
          "latitude": 34.101944,
          "longitude": 129.515833,
          "type": "waypoint"
        },
        {
          "name": "TERIG",
          "latitude": 33.940556,
          "longitude": 129.586111,
          "type": "waypoint"
        },
        {
          "name": "OLNUX",
          "latitude": 33.815833,
          "longitude": 129.640278,
          "type": "waypoint"
        },
        {
          "name": "AKNAG",
          "latitude": 33.338056,
          "longitude": 129.845833,
          "type": "waypoint"
        }
      ]
    },
    {
      "name": "Y256",
      "description": "Route Y256 from MARCO to STOUT",
      "points": [
        {
          "name": "MARCO",
          "latitude": 34.079444,
          "longitude": 132.147222,
          "type": "waypoint"
        },
        {
          "name": "HASSY",
          "latitude": 34.121944,
          "longitude": 131.728889,
          "type": "waypoint"
        },
        {
          "name": "RISRU",
          "latitude": 34.159444,
          "longitude": 131.345556,
          "type": "waypoint"
        },
        {
          "name": "CARRY",
          "latitude": 34.176944,
          "longitude": 131.161667,
          "type": "waypoint"
        },
        {
          "name": "STOUT",
          "latitude": 34.190833,
          "longitude": 131.016111,
          "type": "waypoint"
        }
      ]
    },
    {
      "name": "Y26",
      "description": "Route Y26 from SEPIA to IGURU",
      "points": [
        {
          "name": "SEPIA",
          "latitude": 30.008889,
          "longitude": 130.634722,
          "type": "waypoint"
        },
        {
          "name": "SWANO",
          "latitude": 29.574722,
          "longitude": 130.075278,
          "type": "waypoint"
        },
        {
          "name": "ANOXA",
          "latitude": 28.988889,
          "longitude": 129.376944,
          "type": "waypoint"
        },
        {
          "name": "POLAM",
          "latitude": 28.198333,
          "longitude": 128.439444,
          "type": "waypoint"
        },
        {
          "name": "YURIX",
          "latitude": 27.488056,
          "longitude": 127.615,
          "type": "waypoint"
        },
        {
          "name": "KAORU",
          "latitude": 26.143889,
          "longitude": 126.2075,
          "type": "waypoint"
        },
        {
          "name": "LILRA",
          "latitude": 24.829722,
          "longitude": 124.870833,
          "type": "waypoint"
        },
        {
          "name": "IGURU",
          "latitude": 23.95,
          "longitude": 124.0,
          "type": "waypoint"
        }
      ]
    },
    {
      "name": "Y27",
      "description": "Route Y27 from RUSAR to SAKON",
      "points": [
        {
          "name": "RUSAR",
          "latitude": 29.865,
          "longitude": 127.837222,
          "type": "waypoint"
        },
        {
          "name": "YURIX",
          "latitude": 27.488052777777778,
          "longitude": 127.61489999999999,
          "type": "waypoint"
        },
        {
          "name": "AMMEK",
          "latitude": 25.598056,
          "longitude": 127.093889,
          "type": "waypoint"
        },
        {
          "name": "SAKON",
          "latitude": 24.120897222222222,
          "longitude": 126.69817222222223,
          "type": "waypoint"
        }
      ]
    },
    {
      "name": "Y28",
      "description": "Route Y28 from NINOX to ISAKY",
      "points": [
        {
          "name": "NINOX",
          "latitude": 35.498056,
          "longitude": 139.164722,
          "type": "waypoint"
        },
        {
          "name": "BIVET",
          "latitude": 35.473889,
          "longitude": 138.676944,
          "type": "waypoint"
        },
        {
          "name": "ISPOR",
          "latitude": 35.446667,
          "longitude": 138.169444,
          "type": "waypoint"
        },
        {
          "name": "KIDAX",
          "latitude": 35.424167,
          "longitude": 137.783333,
          "type": "waypoint"
        },
        {
          "name": "IPLES",
          "latitude": 35.407778,
          "longitude": 137.562778,
          "type": "waypoint"
        },
        {
          "name": "IDNIL",
          "latitude": 35.305556,
          "longitude": 137.096944,
          "type": "waypoint"
        },
        {
          "name": "NAGOYA",
          "latitude": 35.265278,
          "longitude": 136.915,
          "type": "waypoint"
        },
        {
          "name": "BIWWA",
          "latitude": 35.116111,
          "longitude": 136.256111,
          "type": "waypoint"
        },
        {
          "name": "ADGUN",
          "latitude": 35.0625,
          "longitude": 136.021389,
          "type": "waypoint"
        },
        {
          "name": "MIDER",
          "latitude": 35.017047222222224,
          "longitude": 135.82600277777777,
          "type": "waypoint"
        },
        {
          "name": "SANDA",
          "latitude": 34.930556,
          "longitude": 135.362222,
          "type": "waypoint"
        },
        {
          "name": "HYOGO",
          "latitude": 34.858611,
          "longitude": 134.995556,
          "type": "waypoint"
        },
        {
          "name": "ASANO",
          "latitude": 34.792778,
          "longitude": 134.646667,
          "type": "waypoint"
        },
        {
          "name": "OLIVE",
          "latitude": 34.755,
          "longitude": 134.45,
          "type": "waypoint"
        },
        {
          "name": "BIZEN",
          "latitude": 34.71,
          "longitude": 134.215,
          "type": "waypoint"
        },
        {
          "name": "PIONE",
          "latitude": 34.671389,
          "longitude": 134.015,
          "type": "waypoint"
        },
        {
          "name": "DANGO",
          "latitude": 34.547778,
          "longitude": 133.615,
          "type": "waypoint"
        },
        {
          "name": "WASYU",
          "latitude": 34.471667,
          "longitude": 133.383611,
          "type": "waypoint"
        },
        {
          "name": "BINGO",
          "latitude": 34.407222,
          "longitude": 133.178056,
          "type": "waypoint"
        },
        {
          "name": "BAMBO",
          "latitude": 34.313333,
          "longitude": 132.883889,
          "type": "waypoint"
        },
        {
          "name": "ONDOC",
          "latitude": 34.209444,
          "longitude": 132.555556,
          "type": "waypoint"
        },
        {
          "name": "MARCO",
          "latitude": 34.079444,
          "longitude": 132.147222,
          "type": "waypoint"
        },
        {
          "name": "CLIPA",
          "latitude": 33.993056,
          "longitude": 131.76,
          "type": "waypoint"
        },
        {
          "name": "HIZET",
          "latitude": 33.871667,
          "longitude": 131.225833,
          "type": "waypoint"
        },
        {
          "name": "ACTIE",
          "latitude": 33.69936944444444,
          "longitude": 130.4873333333333,
          "type": "waypoint"
        },
        {
          "name": "FUKUOKA",
          "latitude": 33.676111,
          "longitude": 130.389722,
          "type": "waypoint"
        },
        {
          "name": "ISAKY",
          "latitude": 33.206111,
          "longitude": 129.653056,
          "type": "waypoint"
        }
      ]
    },
    {
      "name": "Y281",
      "description": "Route Y281 from PIONE to STOUT",
      "points": [
        {
          "name": "PIONE",
          "latitude": 34.671389,
          "longitude": 134.015,
          "type": "waypoint"
        },
        {
          "name": "SOUJA",
          "latitude": 34.6275,
          "longitude": 133.739444,
          "type": "waypoint"
        },
        {
          "name": "UKELI",
          "latitude": 34.469444,
          "longitude": 132.741111,
          "type": "waypoint"
        },
        {
          "name": "CARPS",
          "latitude": 34.406944,
          "longitude": 132.359444,
          "type": "waypoint"
        },
        {
          "name": "UNSOB",
          "latitude": 34.382222,
          "longitude": 132.200556,
          "type": "waypoint"
        },
        {
          "name": "ELNEB",
          "latitude": 34.301667,
          "longitude": 131.692778,
          "type": "waypoint"
        },
        {
          "name": "STOUT",
          "latitude": 34.190833,
          "longitude": 131.016111,
          "type": "waypoint"
        }
      ]
    },
    {
      "name": "Y282",
      "description": "Route Y282 from WAKIT to POPPY",
      "points": [
        {
          "name": "WAKIT",
          "latitude": 35.03273611111111,
          "longitude": 134.92555277777777,
          "type": "waypoint"
        },
        {
          "name": "ASANO",
          "latitude": 34.792778,
          "longitude": 134.646667,
          "type": "waypoint"
        },
        {
          "name": "AYAME",
          "latitude": 34.600556,
          "longitude": 134.453889,
          "type": "waypoint"
        },
        {
          "name": "SHION",
          "latitude": 34.428333,
          "longitude": 134.2825,
          "type": "waypoint"
        },
        {
          "name": "HIBIS",
          "latitude": 34.248611,
          "longitude": 134.125,
          "type": "waypoint"
        },
        {
          "name": "OBOKE",
          "latitude": 34.015,
          "longitude": 133.921389,
          "type": "waypoint"
        },
        {
          "name": "POPPY",
          "latitude": 33.818075,
          "longitude": 133.820925,
          "type": "waypoint"
        }
      ]
    },
    {
      "name": "Y283",
      "description": "Route Y283 from BAMBO to MATSUYAMA",
      "points": [
        {
          "name": "BAMBO",
          "latitude": 34.313333,
          "longitude": 132.883889,
          "type": "waypoint"
        },
        {
          "name": "KINOE",
          "latitude": 34.173889,
          "longitude": 132.8375,
          "type": "waypoint"
        },
        {
          "name": "ITUKI",
          "latitude": 34.071111,
          "longitude": 132.803056,
          "type": "waypoint"
        },
        {
          "name": "MATSUYAMA",
          "latitude": 33.83,
          "longitude": 132.692222,
          "type": "waypoint"
        }
      ]
    },
    {
      "name": "Y284",
      "description": "Route Y284 from MARCO to UBE",
      "points": [
        {
          "name": "MARCO",
          "latitude": 34.079444,
          "longitude": 132.147222,
          "type": "waypoint"
        },
        {
          "name": "DEMIZ",
          "latitude": 34.02,
          "longitude": 131.785,
          "type": "waypoint"
        },
        {
          "name": "KATTA",
          "latitude": 34.003611,
          "longitude": 131.686944,
          "type": "waypoint"
        },
        {
          "name": "UBE",
          "latitude": 33.935556,
          "longitude": 131.283611,
          "type": "waypoint"
        }
      ]
    },
    {
      "name": "Y285",
      "description": "Route Y285 from MARCO to SUOH",
      "points": [
        {
          "name": "MARCO",
          "latitude": 34.079444,
          "longitude": 132.147222,
          "type": "waypoint"
        },
        {
          "name": "SAZOH",
          "latitude": 34.002778,
          "longitude": 131.756944,
          "type": "waypoint"
        },
        {
          "name": "IWAYA",
          "latitude": 33.933611,
          "longitude": 131.409167,
          "type": "waypoint"
        },
        {
          "name": "ASARI",
          "latitude": 33.894167,
          "longitude": 131.214444,
          "type": "waypoint"
        },
        {
          "name": "SUOH",
          "latitude": 33.856667,
          "longitude": 131.029444,
          "type": "waypoint"
        }
      ]
    },
    {
      "name": "Y287",
      "description": "Route Y287 from MIHOU to SOUJA",
      "points": [
        {
          "name": "MIHOU",
          "latitude": 35.531111,
          "longitude": 133.093889,
          "type": "waypoint"
        },
        {
          "name": "DULOK",
          "latitude": 35.453889,
          "longitude": 133.149722,
          "type": "waypoint"
        },
        {
          "name": "SOUJA",
          "latitude": 34.6275,
          "longitude": 133.739444,
          "type": "waypoint"
        }
      ]
    },
    {
      "name": "Y288",
      "description": "Route Y288 from INOOK to KINOE",
      "points": [
        {
          "name": "INOOK",
          "latitude": 34.497778,
          "longitude": 133.621944,
          "type": "waypoint"
        },
        {
          "name": "TAKMA",
          "latitude": 34.252778,
          "longitude": 133.416389,
          "type": "waypoint"
        },
        {
          "name": "KINOE",
          "latitude": 34.173833333333334,
          "longitude": 132.83745000000002,
          "type": "waypoint"
        }
      ]
    },
    {
      "name": "Y289",
      "description": "Route Y289 from SHTLE to SANDA",
      "points": [
        {
          "name": "SHTLE",
          "latitude": 34.830833,
          "longitude": 136.948333,
          "type": "waypoint"
        },
        {
          "name": "OLKED",
          "latitude": 34.880833,
          "longitude": 136.192778,
          "type": "waypoint"
        },
        {
          "name": "SANDA",
          "latitude": 34.930556,
          "longitude": 135.362222,
          "type": "waypoint"
        }
      ]
    },
    {
      "name": "Y293",
      "description": "Route Y293 from YULIA to GAKIA",
      "points": [
        {
          "name": "YULIA",
          "latitude": 31.716944,
          "longitude": 135.076389,
          "type": "waypoint"
        },
        {
          "name": "GUSLU",
          "latitude": 30.912222,
          "longitude": 133.660278,
          "type": "waypoint"
        },
        {
          "name": "TONAR",
          "latitude": 29.8175,
          "longitude": 131.810833,
          "type": "waypoint"
        },
        {
          "name": "GAKIA",
          "latitude": 27.816147222222224,
          "longitude": 127.42081111111112,
          "type": "waypoint"
        }
      ]
    },
    {
      "name": "Y295",
      "description": "Route Y295 from KOSKA to MIYAZU",
      "points": [
        {
          "name": "KOSKA",
          "latitude": 35.255833,
          "longitude": 139.5875,
          "type": "waypoint"
        },
        {
          "name": "DALMA",
          "latitude": 35.013889,
          "longitude": 138.856111,
          "type": "waypoint"
        },
        {
          "name": "SHIZUOKA",
          "latitude": 34.796944,
          "longitude": 138.193333,
          "type": "waypoint"
        },
        {
          "name": "GAKKI",
          "latitude": 34.747778,
          "longitude": 137.680556,
          "type": "waypoint"
        },
        {
          "name": "KIKOL",
          "latitude": 34.841111,
          "longitude": 137.543056,
          "type": "waypoint"
        },
        {
          "name": "MORIZ",
          "latitude": 35.056667,
          "longitude": 137.223056,
          "type": "waypoint"
        },
        {
          "name": "KOMAK",
          "latitude": 35.186389,
          "longitude": 137.033333,
          "type": "waypoint"
        },
        {
          "name": "NAGOYA",
          "latitude": 35.265278,
          "longitude": 136.915,
          "type": "waypoint"
        },
        {
          "name": "APILU",
          "latitude": 35.298333,
          "longitude": 136.656111,
          "type": "waypoint"
        },
        {
          "name": "MORVA",
          "latitude": 35.327222,
          "longitude": 136.426111,
          "type": "waypoint"
        },
        {
          "name": "MIYAZU",
          "latitude": 35.480556,
          "longitude": 135.136944,
          "type": "waypoint"
        }
      ]
    },
    {
      "name": "Y296",
      "description": "Route Y296 from GAKKI to HANTO",
      "points": [
        {
          "name": "GAKKI",
          "latitude": 34.747778,
          "longitude": 137.680556,
          "type": "waypoint"
        },
        {
          "name": "HANTO",
          "latitude": 34.511389,
          "longitude": 137.034444,
          "type": "waypoint"
        }
      ]
    },
    {
      "name": "Y30",
      "description": "Route Y30 from MIYAKO to SWAMP",
      "points": [
        {
          "name": "MIYAKO",
          "latitude": 39.865556,
          "longitude": 141.951111,
          "type": "waypoint"
        },
        {
          "name": "JUGEM",
          "latitude": 37.933611,
          "longitude": 141.162778,
          "type": "waypoint"
        },
        {
          "name": "GUGBI",
          "latitude": 37.775556,
          "longitude": 141.1,
          "type": "waypoint"
        },
        {
          "name": "BONGO",
          "latitude": 37.4125,
          "longitude": 140.957222,
          "type": "waypoint"
        },
        {
          "name": "ENTAK",
          "latitude": 36.993611,
          "longitude": 140.795,
          "type": "waypoint"
        },
        {
          "name": "GURIP",
          "latitude": 36.554444,
          "longitude": 140.626667,
          "type": "waypoint"
        },
        {
          "name": "SWAMP",
          "latitude": 36.320556,
          "longitude": 140.538056,
          "type": "waypoint"
        }
      ]
    },
    {
      "name": "Y301",
      "description": "Route Y301 from IGROD to YAMAGATA",
      "points": [
        {
          "name": "IGROD",
          "latitude": 41.65,
          "longitude": 136.783333,
          "type": "waypoint"
        },
        {
          "name": "CLALA",
          "latitude": 39.185278,
          "longitude": 137.871111,
          "type": "waypoint"
        },
        {
          "name": "REALU",
          "latitude": 38.816944,
          "longitude": 138.290278,
          "type": "waypoint"
        },
        {
          "name": "VIROP",
          "latitude": 38.705833,
          "longitude": 138.415556,
          "type": "waypoint"
        },
        {
          "name": "ENVAS",
          "latitude": 38.512222,
          "longitude": 139.625556,
          "type": "waypoint"
        },